[
    {authorName: "Waley, Arthur",
    books: [
            {title: "More Translations from the Chinese", cities: []
            }
        ]
    },
    {authorName: "Bai, Juyi",
    books: [
            {title: "More Translations from the Chinese", cities: []
            }
        ]
    },
    {authorName: "Defoe, Daniel",
    books: [
            {title: "The Life and Most Surprising Adventures of Robinson Crusoe, of York, Mariner (1801)", cities: [
                    {cityName: "Calais",latitude : "50.95194", longitude: "1.85635", count: "2"
                    },
                    {cityName: "York",latitude : "39.9626", longitude: "-76.72774", count: "1"
                    },
                    {cityName: "Argun",latitude : "43.29713", longitude: "45.87454", count: "1"
                    },
                    {cityName: "Stafford",latitude : "29.61607", longitude: "-95.55772", count: "1"
                    },
                    {cityName: "Dublin",latitude : "37.70215", longitude: "-121.93579", count: "1"
                    },
                    {cityName: "Hamburg",latitude : "53.57532", longitude: "10.01534", count: "1"
                    },
                    {cityName: "Pekin",latitude : "40.56754", longitude: "-89.64066", count: "10"
                    },
                    {cityName: "Moscow",latitude : "46.73239", longitude: "-117.00017", count: "3"
                    },
                    {cityName: "Formosa",latitude : "-15.53722", longitude: "-47.33444", count: "1"
                    },
                    {cityName: "Bremen",latitude : "53.07516", longitude: "8.80777", count: "1"
                    },
                    {cityName: "Trinidad",latitude : "-33.5165", longitude: "-56.89957", count: "2"
                    },
                    {cityName: "Bristol",latitude : "41.67176", longitude: "-72.94927", count: "2"
                    },
                    {cityName: "Vienna",latitude : "38.90122", longitude: "-77.26526", count: "1"
                    },
                    {cityName: "Drogheda",latitude : "53.71889", longitude: "-6.34778", count: "1"
                    },
                    {cityName: "Providence",latitude : "41.82399", longitude: "-71.41283", count: "32"
                    },
                    {cityName: "Lisbon",latitude : "38.71667", longitude: "-9.13333", count: "9"
                    },
                    {cityName: "Dover",latitude : "40.88399", longitude: "-74.5621", count: "1"
                    },
                    {cityName: "Agra",latitude : "27.18333", longitude: "78.01667", count: "1"
                    },
                    {cityName: "Coromandel",latitude : "-18.47333", longitude: "-47.20028", count: "1"
                    },
                    {cityName: "Batavia",latitude : "42.99812", longitude: "-78.18752", count: "3"
                    },
                    {cityName: "Harwich",latitude : "51.94194", longitude: "1.28437", count: "1"
                    },
                    {cityName: "Asia",latitude : "9.5506", longitude: "122.5164", count: "1"
                    },
                    {cityName: "Madrid",latitude : "40.4165", longitude: "-3.70256", count: "1"
                    },
                    {cityName: "London",latitude : "51.50853", longitude: "-0.12574", count: "15"
                    },
                    {cityName: "Mexico",latitude : "15.0646", longitude: "120.7198", count: "2"
                    },
                    {cityName: "Bedford",latitude : "42.94647", longitude: "-71.5159", count: "1"
                    },
                    {cityName: "Largo",latitude : "27.90979", longitude: "-82.78842", count: "1"
                    },
                    {cityName: "Bay",latitude : "14.18368", longitude: "121.28554", count: "1"
                    },
                    {cityName: "Yarmouth",latitude : "41.70567", longitude: "-70.22863", count: "4"
                    },
                    {cityName: "Jamaica",latitude : "40.69149", longitude: "-73.80569", count: "2"
                    },
                    {cityName: "Paris",latitude : "33.66094", longitude: "-95.55551", count: "2"
                    },
                    {cityName: "Navarre",latitude : "30.40159", longitude: "-86.86357", count: "1"
                    }
                ]
            }
        ]
    },
    {authorName: "Wilson, Samuel Graham",
    books: [
            {title: "Bahaism and Its Claims A Study of the Religion Promulgated by Baha Ullah and Abdul Baha", cities: [
                    {cityName: "Delhi",latitude : "28.65195", longitude: "77.23149", count: "1"
                    },
                    {cityName: "Tunis",latitude : "36.81897", longitude: "10.16579", count: "2"
                    },
                    {cityName: "Samsun",latitude : "41.27976", longitude: "36.3361", count: "1"
                    },
                    {cityName: "Damascus",latitude : "39.28844", longitude: "-77.20387", count: "3"
                    },
                    {cityName: "Stuttgart",latitude : "48.78232", longitude: "9.17702", count: "1"
                    },
                    {cityName: "Cape Town",latitude : "-33.92584", longitude: "18.42322", count: "1"
                    },
                    {cityName: "West Englewood",latitude : "41.77809", longitude: "-87.66672", count: "1"
                    },
                    {cityName: "Ithaca",latitude : "42.44063", longitude: "-76.49661", count: "1"
                    },
                    {cityName: "Hamburg",latitude : "53.57532", longitude: "10.01534", count: "1"
                    },
                    {cityName: "Brooklyn",latitude : "40.6501", longitude: "-73.94958", count: "1"
                    },
                    {cityName: "Beirut",latitude : "33.89332", longitude: "35.50157", count: "13"
                    },
                    {cityName: "Washington",latitude : "37.13054", longitude: "-113.50829", count: "6"
                    },
                    {cityName: "Haifa",latitude : "32.81841", longitude: "34.9885", count: "14"
                    },
                    {cityName: "New York City",latitude : "40.71427", longitude: "-74.00597", count: "2"
                    },
                    {cityName: "Tiberias",latitude : "32.79221", longitude: "35.53124", count: "2"
                    },
                    {cityName: "Tabriz",latitude : "38.08", longitude: "46.2919", count: "16"
                    },
                    {cityName: "Rome",latitude : "43.21285", longitude: "-75.45573", count: "1"
                    },
                    {cityName: "Atlanta",latitude : "33.749", longitude: "-84.38798", count: "1"
                    },
                    {cityName: "Shiraz",latitude : "29.61031", longitude: "52.53113", count: "1"
                    },
                    {cityName: "Denver",latitude : "39.73915", longitude: "-104.9847", count: "1"
                    },
                    {cityName: "Alexandria",latitude : "38.80484", longitude: "-77.04692", count: "1"
                    },
                    {cityName: "Famagusta",latitude : "35.12054", longitude: "33.93894", count: "1"
                    },
                    {cityName: "Oxford",latitude : "39.507", longitude: "-84.74523", count: "1"
                    },
                    {cityName: "Kenosha",latitude : "42.58474", longitude: "-87.82119", count: "2"
                    },
                    {cityName: "Boston",latitude : "42.35843", longitude: "-71.05977", count: "2"
                    },
                    {cityName: "Kerman",latitude : "30.28321", longitude: "57.07879", count: "1"
                    },
                    {cityName: "Liverpool",latitude : "53.41058", longitude: "-2.97794", count: "1"
                    },
                    {cityName: "Brussels",latitude : "50.85045", longitude: "4.34878", count: "1"
                    },
                    {cityName: "Chicago",latitude : "41.85003", longitude: "-87.65005", count: "35"
                    },
                    {cityName: "Mecca",latitude : "21.42664", longitude: "39.82563", count: "3"
                    },
                    {cityName: "Abha",latitude : "18.21639", longitude: "42.50528", count: "2"
                    },
                    {cityName: "Jerusalem",latitude : "31.76904", longitude: "35.21633", count: "5"
                    },
                    {cityName: "Palestine",latitude : "31.76212", longitude: "-95.63079", count: "1"
                    },
                    {cityName: "Adam",latitude : "22.37934", longitude: "57.52718", count: "1"
                    },
                    {cityName: "Nazareth",latitude : "32.69925", longitude: "35.30483", count: "1"
                    },
                    {cityName: "Baltimore",latitude : "39.29038", longitude: "-76.61219", count: "1"
                    },
                    {cityName: "Asia",latitude : "9.5506", longitude: "122.5164", count: "4"
                    },
                    {cityName: "Cairo",latitude : "30.06263", longitude: "31.24967", count: "4"
                    },
                    {cityName: "London",latitude : "51.50853", longitude: "-0.12574", count: "10"
                    },
                    {cityName: "Los Angeles",latitude : "34.05223", longitude: "-118.24368", count: "2"
                    },
                    {cityName: "Frankfort",latitude : "40.27948", longitude: "-86.51084", count: "1"
                    },
                    {cityName: "Wilmette",latitude : "42.07225", longitude: "-87.72284", count: "1"
                    },
                    {cityName: "Paris",latitude : "33.66094", longitude: "-95.55551", count: "7"
                    },
                    {cityName: "Mount Lebanon",latitude : "40.35535", longitude: "-80.0495", count: "1"
                    }
                ]
            }
        ]
    },
    {authorName: "Stevens, George T. (George Thomas)",
    books: [
            {title: "Three Years in the Sixth CorpsA Concise Narrative of Events in the Army of the Potomac,from 1861 to the Close of the Rebellion, April, 1865", cities: [
                    {cityName: "Westminster",latitude : "39.83665", longitude: "-105.0372", count: "1"
                    },
                    {cityName: "Stoughton",latitude : "42.1251", longitude: "-71.10227", count: "1"
                    },
                    {cityName: "Stafford",latitude : "29.61607", longitude: "-95.55772", count: "1"
                    },
                    {cityName: "Pleasanton",latitude : "37.66243", longitude: "-121.87468", count: "2"
                    },
                    {cityName: "Johnstown",latitude : "40.32674", longitude: "-78.92197", count: "1"
                    },
                    {cityName: "Cambridge",latitude : "42.3751", longitude: "-71.10561", count: "2"
                    },
                    {cityName: "Waterloo",latitude : "42.49276", longitude: "-92.34296", count: "2"
                    },
                    {cityName: "Glendale",latitude : "34.14251", longitude: "-118.25508", count: "2"
                    },
                    {cityName: "Woodstock",latitude : "42.31474", longitude: "-88.4487", count: "1"
                    },
                    {cityName: "Salisbury",latitude : "35.67097", longitude: "-80.47423", count: "2"
                    },
                    {cityName: "Mount Vernon",latitude : "48.42122", longitude: "-122.33405", count: "2"
                    },
                    {cityName: "Wheaton",latitude : "41.86614", longitude: "-88.10701", count: "2"
                    },
                    {cityName: "Williamsport",latitude : "41.24119", longitude: "-77.00108", count: "5"
                    },
                    {cityName: "Alexandria",latitude : "38.80484", longitude: "-77.04692", count: "13"
                    },
                    {cityName: "Orleans",latitude : "-28.35889", longitude: "-49.29139", count: "1"
                    },
                    {cityName: "Georgetown",latitude : "30.63269", longitude: "-97.67723", count: "2"
                    },
                    {cityName: "Albany",latitude : "44.63651", longitude: "-123.10593", count: "4"
                    },
                    {cityName: "Camden",latitude : "39.92595", longitude: "-75.11962", count: "1"
                    },
                    {cityName: "Frederick",latitude : "39.41427", longitude: "-77.41054", count: "1"
                    },
                    {cityName: "Saratoga Springs",latitude : "40.34912", longitude: "-111.90466", count: "2"
                    },
                    {cityName: "Bowling Green",latitude : "41.37477", longitude: "-83.65132", count: "2"
                    },
                    {cityName: "Berlin",latitude : "52.52437", longitude: "13.41053", count: "2"
                    },
                    {cityName: "Jerusalem",latitude : "31.76904", longitude: "35.21633", count: "3"
                    },
                    {cityName: "Hudson",latitude : "41.24006", longitude: "-81.44067", count: "2"
                    },
                    {cityName: "Clifton",latitude : "39.09193", longitude: "-108.44898", count: "1"
                    },
                    {cityName: "White Plains",latitude : "41.03399", longitude: "-73.76291", count: "1"
                    },
                    {cityName: "Cumberland",latitude : "41.96677", longitude: "-71.43284", count: "1"
                    },
                    {cityName: "Delaware",latitude : "40.29867", longitude: "-83.06797", count: "1"
                    },
                    {cityName: "Hampton",latitude : "37.02987", longitude: "-76.34522", count: "1"
                    },
                    {cityName: "Waynesboro",latitude : "38.06847", longitude: "-78.88947", count: "2"
                    },
                    {cityName: "Fairfax",latitude : "38.84622", longitude: "-77.30637", count: "7"
                    },
                    {cityName: "Rockville",latitude : "39.084", longitude: "-77.15276", count: "3"
                    },
                    {cityName: "Williston",latitude : "48.14697", longitude: "-103.61797", count: "1"
                    },
                    {cityName: "Newton",latitude : "42.33704", longitude: "-71.20922", count: "3"
                    },
                    {cityName: "Gainesville",latitude : "33.62594", longitude: "-97.13335", count: "1"
                    },
                    {cityName: "Jamestown",latitude : "42.097", longitude: "-79.23533", count: "1"
                    },
                    {cityName: "Wadsworth",latitude : "41.02561", longitude: "-81.72985", count: "3"
                    },
                    {cityName: "Annandale",latitude : "38.83039", longitude: "-77.19637", count: "1"
                    },
                    {cityName: "Falmouth",latitude : "50.15441", longitude: "-5.07113", count: "3"
                    },
                    {cityName: "Winchester",latitude : "36.12997", longitude: "-115.11889", count: "16"
                    },
                    {cityName: "Virginia",latitude : "-28.10391", longitude: "26.86593", count: "23"
                    },
                    {cityName: "Richmond",latitude : "-29.87196", longitude: "30.27235", count: "45"
                    },
                    {cityName: "Norfolk",latitude : "42.02834", longitude: "-97.417", count: "1"
                    },
                    {cityName: "Hanover",latitude : "42.11316", longitude: "-70.81199", count: "1"
                    },
                    {cityName: "Manassas",latitude : "38.75095", longitude: "-77.47527", count: "8"
                    },
                    {cityName: "Warrenton",latitude : "-28.11396", longitude: "24.84753", count: "15"
                    },
                    {cityName: "York",latitude : "39.9626", longitude: "-76.72774", count: "2"
                    },
                    {cityName: "Potomac",latitude : "39.01817", longitude: "-77.20859", count: "51"
                    },
                    {cityName: "Roanoke",latitude : "37.27097", longitude: "-79.94143", count: "3"
                    },
                    {cityName: "Washington",latitude : "37.13054", longitude: "-113.50829", count: "68"
                    },
                    {cityName: "Fair Oaks",latitude : "38.64463", longitude: "-121.27217", count: "3"
                    },
                    {cityName: "Woodbury",latitude : "44.92386", longitude: "-92.95938", count: "2"
                    },
                    {cityName: "Atlanta",latitude : "33.749", longitude: "-84.38798", count: "1"
                    },
                    {cityName: "Sulphur Springs",latitude : "33.13845", longitude: "-95.60107", count: "2"
                    },
                    {cityName: "Hamilton",latitude : "39.3995", longitude: "-84.56134", count: "1"
                    },
                    {cityName: "Vienna",latitude : "38.90122", longitude: "-77.26526", count: "4"
                    },
                    {cityName: "Shenandoah",latitude : "30.4013", longitude: "-91.00094", count: "8"
                    },
                    {cityName: "Middletown",latitude : "41.54566", longitude: "-71.29144", count: "6"
                    },
                    {cityName: "New Orleans",latitude : "29.95465", longitude: "-90.07507", count: "1"
                    },
                    {cityName: "Beaver Dam",latitude : "43.45777", longitude: "-88.83733", count: "1"
                    },
                    {cityName: "Chantilly",latitude : "38.89428", longitude: "-77.4311", count: "2"
                    },
                    {cityName: "Vicksburg",latitude : "32.35265", longitude: "-90.87788", count: "1"
                    },
                    {cityName: "Hagerstown",latitude : "39.64176", longitude: "-77.71999", count: "13"
                    },
                    {cityName: "Golden",latitude : "39.75554", longitude: "-105.2211", count: "4"
                    },
                    {cityName: "Saratoga",latitude : "37.26383", longitude: "-122.02301", count: "12"
                    },
                    {cityName: "Centreville",latitude : "38.84039", longitude: "-77.42888", count: "24"
                    },
                    {cityName: "Charlottesville",latitude : "38.02931", longitude: "-78.47668", count: "1"
                    },
                    {cityName: "Jefferson",latitude : "38.86456", longitude: "-77.18776", count: "3"
                    },
                    {cityName: "Urbana",latitude : "40.11059", longitude: "-88.20727", count: "1"
                    },
                    {cityName: "Chesapeake",latitude : "36.81904", longitude: "-76.27494", count: "1"
                    },
                    {cityName: "Danville",latitude : "37.82159", longitude: "-121.99996", count: "3"
                    },
                    {cityName: "Elmira",latitude : "42.0898", longitude: "-76.80773", count: "1"
                    },
                    {cityName: "Mechanicsville",latitude : "37.60876", longitude: "-77.37331", count: "8"
                    },
                    {cityName: "Baltimore",latitude : "39.29038", longitude: "-76.61219", count: "12"
                    },
                    {cityName: "Manchester",latitude : "42.99564", longitude: "-71.45479", count: "3"
                    },
                    {cityName: "Mexico",latitude : "15.0646", longitude: "120.7198", count: "3"
                    },
                    {cityName: "Fairfield",latitude : "38.24936", longitude: "-122.03997", count: "5"
                    },
                    {cityName: "Philadelphia",latitude : "39.95233", longitude: "-75.16379", count: "7"
                    },
                    {cityName: "Paris",latitude : "33.66094", longitude: "-95.55551", count: "1"
                    }
                ]
            }
        ]
    },
    {authorName: "Elwell, J. B. (Joseph Bowne)",
    books: [
            {title: "Bridge Axioms and Laws", cities: []
            }
        ]
    },
    {authorName: "Schlesinger, Max",
    books: [
            {title: "Saunterings in and about London", cities: [
                    {cityName: "Westminster",latitude : "39.83665", longitude: "-105.0372", count: "4"
                    },
                    {cityName: "Calais",latitude : "50.95194", longitude: "1.85635", count: "5"
                    },
                    {cityName: "Gibraltar",latitude : "36.14474", longitude: "-5.35257", count: "1"
                    },
                    {cityName: "Woburn",latitude : "42.47926", longitude: "-71.15228", count: "1"
                    },
                    {cityName: "Dublin",latitude : "37.70215", longitude: "-121.93579", count: "2"
                    },
                    {cityName: "Glasgow",latitude : "55.86515", longitude: "-4.25763", count: "1"
                    },
                    {cityName: "Waterloo",latitude : "42.49276", longitude: "-92.34296", count: "7"
                    },
                    {cityName: "Linz",latitude : "48.30639", longitude: "14.28611", count: "1"
                    },
                    {cityName: "Rome",latitude : "43.21285", longitude: "-75.45573", count: "4"
                    },
                    {cityName: "Folkestone",latitude : "51.08169", longitude: "1.16734", count: "1"
                    },
                    {cityName: "Alexandria",latitude : "38.80484", longitude: "-77.04692", count: "1"
                    },
                    {cityName: "Berwick",latitude : "-38.03333", longitude: "145.35", count: "1"
                    },
                    {cityName: "Wellington",latitude : "-33.63981", longitude: "19.0112", count: "11"
                    },
                    {cityName: "Spandau",latitude : "52.5511", longitude: "13.19921", count: "1"
                    },
                    {cityName: "Nelson",latitude : "-41.27078", longitude: "173.28404", count: "1"
                    },
                    {cityName: "Providence",latitude : "41.82399", longitude: "-71.41283", count: "2"
                    },
                    {cityName: "Mons",latitude : "50.45413", longitude: "3.95229", count: "1"
                    },
                    {cityName: "Islington",latitude : "51.53622", longitude: "-0.10304", count: "1"
                    },
                    {cityName: "Hyde Park",latitude : "41.7942", longitude: "-87.59394", count: "8"
                    },
                    {cityName: "Berlin",latitude : "52.52437", longitude: "13.41053", count: "19"
                    },
                    {cityName: "Victoria",latitude : "28.80527", longitude: "-97.0036", count: "2"
                    },
                    {cityName: "Athens",latitude : "34.80243", longitude: "-86.97219", count: "1"
                    },
                    {cityName: "Kensington",latitude : "40.64621", longitude: "-73.97069", count: "1"
                    },
                    {cityName: "Prague",latitude : "50.08804", longitude: "14.42076", count: "2"
                    },
                    {cityName: "Venice",latitude : "33.99084", longitude: "-118.46008", count: "2"
                    },
                    {cityName: "Ostend",latitude : "51.21551", longitude: "2.927", count: "1"
                    },
                    {cityName: "Suffolk",latitude : "36.72836", longitude: "-76.58496", count: "1"
                    },
                    {cityName: "Leipzig",latitude : "51.33962", longitude: "12.37129", count: "3"
                    },
                    {cityName: "London",latitude : "51.50853", longitude: "-0.12574", count: "269"
                    },
                    {cityName: "Sheffield",latitude : "53.38297", longitude: "-1.4659", count: "1"
                    },
                    {cityName: "Kew",latitude : "-37.80639", longitude: "145.03086", count: "1"
                    },
                    {cityName: "Jamaica",latitude : "40.69149", longitude: "-73.80569", count: "1"
                    },
                    {cityName: "Frankfort",latitude : "40.27948", longitude: "-86.51084", count: "1"
                    },
                    {cityName: "Heidelberg",latitude : "-26.50476", longitude: "28.35921", count: "4"
                    },
                    {cityName: "Portsmouth",latitude : "41.60232", longitude: "-71.25033", count: "1"
                    },
                    {cityName: "Bayswater",latitude : "51.51116", longitude: "-0.18426", count: "2"
                    },
                    {cityName: "Surrey",latitude : "49.10635", longitude: "-122.82509", count: "1"
                    },
                    {cityName: "Richmond",latitude : "-29.87196", longitude: "30.27235", count: "3"
                    },
                    {cityName: "Norfolk",latitude : "42.02834", longitude: "-97.417", count: "1"
                    },
                    {cityName: "Palmerston",latitude : "-12.48602", longitude: "130.9833", count: "8"
                    },
                    {cityName: "Windsor",latitude : "40.47748", longitude: "-104.90136", count: "1"
                    },
                    {cityName: "Moscow",latitude : "46.73239", longitude: "-117.00017", count: "1"
                    },
                    {cityName: "Cleveland",latitude : "41.4995", longitude: "-81.69541", count: "1"
                    },
                    {cityName: "Vittoria",latitude : "36.95151", longitude: "14.52788", count: "1"
                    },
                    {cityName: "Honolulu",latitude : "21.30694", longitude: "-157.85833", count: "1"
                    },
                    {cityName: "Vienna",latitude : "38.90122", longitude: "-77.26526", count: "15"
                    },
                    {cityName: "Naples",latitude : "26.14234", longitude: "-81.79596", count: "2"
                    },
                    {cityName: "Edinburgh",latitude : "55.95206", longitude: "-3.19648", count: "2"
                    },
                    {cityName: "Oxford",latitude : "39.507", longitude: "-84.74523", count: "2"
                    },
                    {cityName: "Holland",latitude : "42.78752", longitude: "-86.10893", count: "1"
                    },
                    {cityName: "Brighton",latitude : "39.98526", longitude: "-104.82053", count: "2"
                    },
                    {cityName: "Epsom",latitude : "51.3305", longitude: "-0.27011", count: "1"
                    },
                    {cityName: "Stratford",latitude : "41.18454", longitude: "-73.13317", count: "1"
                    },
                    {cityName: "Dover",latitude : "40.88399", longitude: "-74.5621", count: "4"
                    },
                    {cityName: "Birmingham",latitude : "42.5467", longitude: "-83.21132", count: "1"
                    },
                    {cityName: "Lebanon",latitude : "44.53651", longitude: "-122.90703", count: "1"
                    },
                    {cityName: "Gravesend",latitude : "40.5976", longitude: "-73.96514", count: "1"
                    },
                    {cityName: "Cairo",latitude : "30.06263", longitude: "31.24967", count: "1"
                    },
                    {cityName: "Manchester",latitude : "42.99564", longitude: "-71.45479", count: "5"
                    },
                    {cityName: "Bedford",latitude : "42.94647", longitude: "-71.5159", count: "1"
                    },
                    {cityName: "Gotha",latitude : "50.94823", longitude: "10.70193", count: "1"
                    },
                    {cityName: "Mexico",latitude : "15.0646", longitude: "120.7198", count: "1"
                    },
                    {cityName: "Paris",latitude : "33.66094", longitude: "-95.55551", count: "53"
                    }
                ]
            }
        ]
    },
    {authorName: "Wenckstern, Otto von",
    books: [
            {title: "Saunterings in and about London", cities: [
                    {cityName: "Westminster",latitude : "39.83665", longitude: "-105.0372", count: "4"
                    },
                    {cityName: "Calais",latitude : "50.95194", longitude: "1.85635", count: "5"
                    },
                    {cityName: "Gibraltar",latitude : "36.14474", longitude: "-5.35257", count: "1"
                    },
                    {cityName: "Woburn",latitude : "42.47926", longitude: "-71.15228", count: "1"
                    },
                    {cityName: "Dublin",latitude : "37.70215", longitude: "-121.93579", count: "2"
                    },
                    {cityName: "Glasgow",latitude : "55.86515", longitude: "-4.25763", count: "1"
                    },
                    {cityName: "Waterloo",latitude : "42.49276", longitude: "-92.34296", count: "7"
                    },
                    {cityName: "Linz",latitude : "48.30639", longitude: "14.28611", count: "1"
                    },
                    {cityName: "Rome",latitude : "43.21285", longitude: "-75.45573", count: "4"
                    },
                    {cityName: "Folkestone",latitude : "51.08169", longitude: "1.16734", count: "1"
                    },
                    {cityName: "Alexandria",latitude : "38.80484", longitude: "-77.04692", count: "1"
                    },
                    {cityName: "Berwick",latitude : "-38.03333", longitude: "145.35", count: "1"
                    },
                    {cityName: "Wellington",latitude : "-33.63981", longitude: "19.0112", count: "11"
                    },
                    {cityName: "Spandau",latitude : "52.5511", longitude: "13.19921", count: "1"
                    },
                    {cityName: "Nelson",latitude : "-41.27078", longitude: "173.28404", count: "1"
                    },
                    {cityName: "Providence",latitude : "41.82399", longitude: "-71.41283", count: "2"
                    },
                    {cityName: "Mons",latitude : "50.45413", longitude: "3.95229", count: "1"
                    },
                    {cityName: "Islington",latitude : "51.53622", longitude: "-0.10304", count: "1"
                    },
                    {cityName: "Hyde Park",latitude : "41.7942", longitude: "-87.59394", count: "8"
                    },
                    {cityName: "Berlin",latitude : "52.52437", longitude: "13.41053", count: "19"
                    },
                    {cityName: "Victoria",latitude : "28.80527", longitude: "-97.0036", count: "2"
                    },
                    {cityName: "Athens",latitude : "34.80243", longitude: "-86.97219", count: "1"
                    },
                    {cityName: "Kensington",latitude : "40.64621", longitude: "-73.97069", count: "1"
                    },
                    {cityName: "Prague",latitude : "50.08804", longitude: "14.42076", count: "2"
                    },
                    {cityName: "Venice",latitude : "33.99084", longitude: "-118.46008", count: "2"
                    },
                    {cityName: "Ostend",latitude : "51.21551", longitude: "2.927", count: "1"
                    },
                    {cityName: "Suffolk",latitude : "36.72836", longitude: "-76.58496", count: "1"
                    },
                    {cityName: "Leipzig",latitude : "51.33962", longitude: "12.37129", count: "3"
                    },
                    {cityName: "London",latitude : "51.50853", longitude: "-0.12574", count: "269"
                    },
                    {cityName: "Sheffield",latitude : "53.38297", longitude: "-1.4659", count: "1"
                    },
                    {cityName: "Kew",latitude : "-37.80639", longitude: "145.03086", count: "1"
                    },
                    {cityName: "Jamaica",latitude : "40.69149", longitude: "-73.80569", count: "1"
                    },
                    {cityName: "Frankfort",latitude : "40.27948", longitude: "-86.51084", count: "1"
                    },
                    {cityName: "Heidelberg",latitude : "-26.50476", longitude: "28.35921", count: "4"
                    },
                    {cityName: "Portsmouth",latitude : "41.60232", longitude: "-71.25033", count: "1"
                    },
                    {cityName: "Bayswater",latitude : "51.51116", longitude: "-0.18426", count: "2"
                    },
                    {cityName: "Surrey",latitude : "49.10635", longitude: "-122.82509", count: "1"
                    },
                    {cityName: "Richmond",latitude : "-29.87196", longitude: "30.27235", count: "3"
                    },
                    {cityName: "Norfolk",latitude : "42.02834", longitude: "-97.417", count: "1"
                    },
                    {cityName: "Palmerston",latitude : "-12.48602", longitude: "130.9833", count: "8"
                    },
                    {cityName: "Windsor",latitude : "40.47748", longitude: "-104.90136", count: "1"
                    },
                    {cityName: "Moscow",latitude : "46.73239", longitude: "-117.00017", count: "1"
                    },
                    {cityName: "Cleveland",latitude : "41.4995", longitude: "-81.69541", count: "1"
                    },
                    {cityName: "Vittoria",latitude : "36.95151", longitude: "14.52788", count: "1"
                    },
                    {cityName: "Honolulu",latitude : "21.30694", longitude: "-157.85833", count: "1"
                    },
                    {cityName: "Vienna",latitude : "38.90122", longitude: "-77.26526", count: "15"
                    },
                    {cityName: "Naples",latitude : "26.14234", longitude: "-81.79596", count: "2"
                    },
                    {cityName: "Edinburgh",latitude : "55.95206", longitude: "-3.19648", count: "2"
                    },
                    {cityName: "Oxford",latitude : "39.507", longitude: "-84.74523", count: "2"
                    },
                    {cityName: "Holland",latitude : "42.78752", longitude: "-86.10893", count: "1"
                    },
                    {cityName: "Brighton",latitude : "39.98526", longitude: "-104.82053", count: "2"
                    },
                    {cityName: "Epsom",latitude : "51.3305", longitude: "-0.27011", count: "1"
                    },
                    {cityName: "Stratford",latitude : "41.18454", longitude: "-73.13317", count: "1"
                    },
                    {cityName: "Dover",latitude : "40.88399", longitude: "-74.5621", count: "4"
                    },
                    {cityName: "Birmingham",latitude : "42.5467", longitude: "-83.21132", count: "1"
                    },
                    {cityName: "Lebanon",latitude : "44.53651", longitude: "-122.90703", count: "1"
                    },
                    {cityName: "Gravesend",latitude : "40.5976", longitude: "-73.96514", count: "1"
                    },
                    {cityName: "Cairo",latitude : "30.06263", longitude: "31.24967", count: "1"
                    },
                    {cityName: "Manchester",latitude : "42.99564", longitude: "-71.45479", count: "5"
                    },
                    {cityName: "Bedford",latitude : "42.94647", longitude: "-71.5159", count: "1"
                    },
                    {cityName: "Gotha",latitude : "50.94823", longitude: "10.70193", count: "1"
                    },
                    {cityName: "Mexico",latitude : "15.0646", longitude: "120.7198", count: "1"
                    },
                    {cityName: "Paris",latitude : "33.66094", longitude: "-95.55551", count: "53"
                    }
                ]
            }
        ]
    },
    {authorName: "Clodd, Edward",
    books: [
            {title: "Myths and Dreams", cities: [
                    {cityName: "Oregon",latitude : "41.64366", longitude: "-83.48688", count: "1"
                    },
                    {cityName: "Tunis",latitude : "36.81897", longitude: "10.16579", count: "1"
                    },
                    {cityName: "Canterbury",latitude : "51.27904", longitude: "1.07992", count: "1"
                    },
                    {cityName: "Pisa",latitude : "43.70853", longitude: "10.4036", count: "1"
                    },
                    {cityName: "Windsor",latitude : "40.47748", longitude: "-104.90136", count: "1"
                    },
                    {cityName: "Algonquin",latitude : "42.16558", longitude: "-88.29425", count: "3"
                    },
                    {cityName: "Geneva",latitude : "41.88753", longitude: "-88.30535", count: "1"
                    },
                    {cityName: "Moscow",latitude : "46.73239", longitude: "-117.00017", count: "1"
                    },
                    {cityName: "Blackburn",latitude : "53.75", longitude: "-2.48333", count: "1"
                    },
                    {cityName: "Laon",latitude : "49.5631", longitude: "3.62714", count: "2"
                    },
                    {cityName: "Aurora",latitude : "39.72943", longitude: "-104.83192", count: "1"
                    },
                    {cityName: "Gloucester",latitude : "42.61405", longitude: "-70.66313", count: "1"
                    },
                    {cityName: "Altdorf",latitude : "49.3856", longitude: "11.3573", count: "1"
                    },
                    {cityName: "Malmesbury",latitude : "-33.4608", longitude: "18.72714", count: "1"
                    },
                    {cityName: "Edinburgh",latitude : "55.95206", longitude: "-3.19648", count: "1"
                    },
                    {cityName: "Glastonbury",latitude : "41.71232", longitude: "-72.60815", count: "1"
                    },
                    {cityName: "Derby",latitude : "37.54557", longitude: "-97.26893", count: "1"
                    },
                    {cityName: "Jerusalem",latitude : "31.76904", longitude: "35.21633", count: "1"
                    },
                    {cityName: "Victoria",latitude : "28.80527", longitude: "-97.0036", count: "2"
                    },
                    {cityName: "Shawnee",latitude : "35.32729", longitude: "-96.9253", count: "2"
                    },
                    {cityName: "Athens",latitude : "34.80243", longitude: "-86.97219", count: "1"
                    },
                    {cityName: "Florida",latitude : "-34.09556", longitude: "-56.21417", count: "1"
                    },
                    {cityName: "Burnley",latitude : "53.8", longitude: "-2.23333", count: "1"
                    },
                    {cityName: "Cicero",latitude : "41.84559", longitude: "-87.75394", count: "1"
                    },
                    {cityName: "Chester",latitude : "37.35682", longitude: "-77.44165", count: "1"
                    },
                    {cityName: "Jupiter",latitude : "26.93422", longitude: "-80.09421", count: "1"
                    },
                    {cityName: "Nazareth",latitude : "32.69925", longitude: "35.30483", count: "1"
                    },
                    {cityName: "Arcadia",latitude : "34.13973", longitude: "-118.03534", count: "1"
                    },
                    {cityName: "Asia",latitude : "9.5506", longitude: "122.5164", count: "5"
                    },
                    {cityName: "Cairo",latitude : "30.06263", longitude: "31.24967", count: "1"
                    },
                    {cityName: "London",latitude : "51.50853", longitude: "-0.12574", count: "4"
                    },
                    {cityName: "Manchester",latitude : "42.99564", longitude: "-71.45479", count: "1"
                    },
                    {cityName: "Mexico",latitude : "15.0646", longitude: "120.7198", count: "3"
                    },
                    {cityName: "Canton",latitude : "40.79895", longitude: "-81.37845", count: "1"
                    }
                ]
            }
        ]
    },
    {authorName: "Tagore, Rabindranath",
    books: [
            {title: "The Hungry Stones, and Other Stories", cities: [
                    {cityName: "Queens",latitude : "40.68149", longitude: "-73.83652", count: "1"
                    },
                    {cityName: "Gaya",latitude : "11.86064", longitude: "9.0027", count: "1"
                    },
                    {cityName: "Bhola",latitude : "22.68759", longitude: "90.64403", count: "1"
                    }
                ]
            }
        ]
    },
    {authorName: "Fontenoy, marquise de",
    books: [
            {title: "The Secret Memoirs of the Courts of Europe: William II, Germany; Francis Joseph, Austria-Hungary, Volume I. (of 2)", cities: [
                    {cityName: "Turin",latitude : "45.07049", longitude: "7.68682", count: "1"
                    },
                    {cityName: "Charlotte",latitude : "35.22709", longitude: "-80.84313", count: "6"
                    },
                    {cityName: "Potsdam",latitude : "52.39886", longitude: "13.06566", count: "28"
                    },
                    {cityName: "Kiel",latitude : "54.32133", longitude: "10.13489", count: "4"
                    },
                    {cityName: "Bucharest",latitude : "44.43225", longitude: "26.10626", count: "1"
                    },
                    {cityName: "Darmstadt",latitude : "49.87167", longitude: "8.65027", count: "1"
                    },
                    {cityName: "Pekin",latitude : "40.56754", longitude: "-89.64066", count: "1"
                    },
                    {cityName: "Copenhagen",latitude : "55.67594", longitude: "12.56553", count: "1"
                    },
                    {cityName: "Rome",latitude : "43.21285", longitude: "-75.45573", count: "7"
                    },
                    {cityName: "Koblenz",latitude : "50.35357", longitude: "7.57883", count: "1"
                    },
                    {cityName: "Albany",latitude : "44.63651", longitude: "-123.10593", count: "1"
                    },
                    {cityName: "Spandau",latitude : "52.5511", longitude: "13.19921", count: "2"
                    },
                    {cityName: "Brunswick",latitude : "41.23811", longitude: "-81.8418", count: "8"
                    },
                    {cityName: "Trieste",latitude : "45.64953", longitude: "13.77678", count: "1"
                    },
                    {cityName: "Munich",latitude : "48.13743", longitude: "11.57549", count: "3"
                    },
                    {cityName: "Brussels",latitude : "50.85045", longitude: "4.34878", count: "2"
                    },
                    {cityName: "Providence",latitude : "41.82399", longitude: "-71.41283", count: "3"
                    },
                    {cityName: "Warsaw",latitude : "52.22977", longitude: "21.01178", count: "1"
                    },
                    {cityName: "Dome",latitude : "5.65003", longitude: "-0.2361", count: "1"
                    },
                    {cityName: "Mecca",latitude : "21.42664", longitude: "39.82563", count: "1"
                    },
                    {cityName: "Berlin",latitude : "52.52437", longitude: "13.41053", count: "155"
                    },
                    {cityName: "Jerusalem",latitude : "31.76904", longitude: "35.21633", count: "9"
                    },
                    {cityName: "Magenta",latitude : "45.46456", longitude: "8.88453", count: "1"
                    },
                    {cityName: "Jaffa",latitude : "32.05043", longitude: "34.75224", count: "1"
                    },
                    {cityName: "Athens",latitude : "34.80243", longitude: "-86.97219", count: "2"
                    },
                    {cityName: "Cumberland",latitude : "41.96677", longitude: "-71.43284", count: "1"
                    },
                    {cityName: "Stockholm",latitude : "59.33258", longitude: "18.0649", count: "2"
                    },
                    {cityName: "Venice",latitude : "33.99084", longitude: "-118.46008", count: "1"
                    },
                    {cityName: "Carlsbad",latitude : "32.42067", longitude: "-104.22884", count: "3"
                    },
                    {cityName: "Homburg",latitude : "49.32637", longitude: "7.33867", count: "2"
                    },
                    {cityName: "Madrid",latitude : "40.4165", longitude: "-3.70256", count: "1"
                    },
                    {cityName: "Leipzig",latitude : "51.33962", longitude: "12.37129", count: "1"
                    },
                    {cityName: "London",latitude : "51.50853", longitude: "-0.12574", count: "13"
                    },
                    {cityName: "Santa Cruz",latitude : "36.97412", longitude: "-122.0308", count: "1"
                    },
                    {cityName: "Cowes",latitude : "50.76306", longitude: "-1.29772", count: "1"
                    },
                    {cityName: "Bismarck",latitude : "46.80833", longitude: "-100.78374", count: "1"
                    },
                    {cityName: "Hanover",latitude : "42.11316", longitude: "-70.81199", count: "4"
                    },
                    {cityName: "Dresden",latitude : "51.05089", longitude: "13.73832", count: "4"
                    },
                    {cityName: "Hong Kong",latitude : "22.27832", longitude: "114.17469", count: "2"
                    },
                    {cityName: "Aschersleben",latitude : "51.75742", longitude: "11.46084", count: "1"
                    },
                    {cityName: "Stuttgart",latitude : "48.78232", longitude: "9.17702", count: "1"
                    },
                    {cityName: "Jericho",latitude : "31.86667", longitude: "35.45", count: "1"
                    },
                    {cityName: "Windsor",latitude : "40.47748", longitude: "-104.90136", count: "3"
                    },
                    {cityName: "Damascus",latitude : "39.28844", longitude: "-77.20387", count: "2"
                    },
                    {cityName: "San Remo",latitude : "43.81725", longitude: "7.7772", count: "3"
                    },
                    {cityName: "Geneva",latitude : "41.88753", longitude: "-88.30535", count: "1"
                    },
                    {cityName: "Coburg",latitude : "50.25937", longitude: "10.96384", count: "8"
                    },
                    {cityName: "Manila",latitude : "14.6042", longitude: "120.9822", count: "6"
                    },
                    {cityName: "Moscow",latitude : "46.73239", longitude: "-117.00017", count: "1"
                    },
                    {cityName: "Washington",latitude : "37.13054", longitude: "-113.50829", count: "1"
                    },
                    {cityName: "Neustadt",latitude : "49.35009", longitude: "8.13886", count: "1"
                    },
                    {cityName: "Corfu",latitude : "39.62069", longitude: "19.91975", count: "1"
                    },
                    {cityName: "Hamilton",latitude : "39.3995", longitude: "-84.56134", count: "1"
                    },
                    {cityName: "Magdeburg",latitude : "52.12773", longitude: "11.62916", count: "1"
                    },
                    {cityName: "Vienna",latitude : "38.90122", longitude: "-77.26526", count: "45"
                    },
                    {cityName: "Aosta",latitude : "45.73764", longitude: "7.31722", count: "1"
                    },
                    {cityName: "Schaumburg",latitude : "42.03336", longitude: "-88.08341", count: "1"
                    },
                    {cityName: "Holland",latitude : "42.78752", longitude: "-86.10893", count: "1"
                    },
                    {cityName: "Shanghai",latitude : "31.22222", longitude: "121.45806", count: "1"
                    },
                    {cityName: "Charlottenburg",latitude : "52.51667", longitude: "13.28333", count: "3"
                    },
                    {cityName: "The Hague",latitude : "52.07667", longitude: "4.29861", count: "1"
                    },
                    {cityName: "La Plata",latitude : "2.39341", longitude: "-75.89232", count: "1"
                    },
                    {cityName: "Bonn",latitude : "50.73438", longitude: "7.09549", count: "5"
                    },
                    {cityName: "Saalfeld",latitude : "50.64826", longitude: "11.36536", count: "2"
                    },
                    {cityName: "Cairo",latitude : "30.06263", longitude: "31.24967", count: "1"
                    },
                    {cityName: "Tempelhof",latitude : "52.46667", longitude: "13.4", count: "1"
                    },
                    {cityName: "Versailles",latitude : "48.80359", longitude: "2.13424", count: "5"
                    },
                    {cityName: "Gotha",latitude : "50.94823", longitude: "10.70193", count: "1"
                    },
                    {cityName: "Mexico",latitude : "15.0646", longitude: "120.7198", count: "1"
                    },
                    {cityName: "Kronberg",latitude : "50.18424", longitude: "8.5232", count: "1"
                    },
                    {cityName: "Coney Island",latitude : "40.57788", longitude: "-73.99403", count: "1"
                    },
                    {cityName: "Paris",latitude : "33.66094", longitude: "-95.55551", count: "19"
                    },
                    {cityName: "Philadelphia",latitude : "39.95233", longitude: "-75.16379", count: "2"
                    }
                ]
            }
        ]
    },
    {authorName: "Diffin, Charles Willard",
    books: [
            {title: "The Hammer of Thor", cities: [
                    {cityName: "Chicago",latitude : "41.85003", longitude: "-87.65005", count: "1"
                    },
                    {cityName: "Hudson",latitude : "41.24006", longitude: "-81.44067", count: "1"
                    },
                    {cityName: "Cleveland",latitude : "41.4995", longitude: "-81.69541", count: "1"
                    },
                    {cityName: "Washington",latitude : "37.13054", longitude: "-113.50829", count: "7"
                    },
                    {cityName: "Boston",latitude : "42.35843", longitude: "-71.05977", count: "3"
                    }
                ]
            }
        ]
    },
    {authorName: "Emerson, Charles Wesley",
    books: [
            {title: "Evolution of Expression, Volume 2RevisedA Compilation of Selections Illustrating the Four Stages of Development in Art As Applied to Oratory; Twenty-Eighth Edition", cities: [
                    {cityName: "Rome",latitude : "43.21285", longitude: "-75.45573", count: "6"
                    },
                    {cityName: "Providence",latitude : "41.82399", longitude: "-71.41283", count: "1"
                    },
                    {cityName: "London",latitude : "51.50853", longitude: "-0.12574", count: "1"
                    },
                    {cityName: "Concord",latitude : "37.97798", longitude: "-122.03107", count: "3"
                    },
                    {cityName: "Winchester",latitude : "36.12997", longitude: "-115.11889", count: "1"
                    },
                    {cityName: "Lexington",latitude : "42.44732", longitude: "-71.2245", count: "4"
                    },
                    {cityName: "Washington",latitude : "37.13054", longitude: "-113.50829", count: "1"
                    },
                    {cityName: "Paris",latitude : "33.66094", longitude: "-95.55551", count: "1"
                    },
                    {cityName: "Rialto",latitude : "34.1064", longitude: "-117.37032", count: "1"
                    },
                    {cityName: "Boston",latitude : "42.35843", longitude: "-71.05977", count: "1"
                    }
                ]
            }
        ]
    },
    {authorName: "Warner, Charles Dudley",
    books: [
            {title: "The Relation of Literature to Life", cities: [
                    {cityName: "Franklin",latitude : "42.88863", longitude: "-88.03842", count: "1"
                    },
                    {cityName: "Detroit",latitude : "42.33143", longitude: "-83.04575", count: "1"
                    },
                    {cityName: "Providence",latitude : "41.82399", longitude: "-71.41283", count: "1"
                    },
                    {cityName: "Chicago",latitude : "41.85003", longitude: "-87.65005", count: "1"
                    },
                    {cityName: "Plainfield",latitude : "40.63371", longitude: "-74.40737", count: "1"
                    },
                    {cityName: "Florence",latitude : "33.03145", longitude: "-111.38734", count: "1"
                    },
                    {cityName: "Washington",latitude : "37.13054", longitude: "-113.50829", count: "2"
                    },
                    {cityName: "Republic",latitude : "37.12005", longitude: "-93.48019", count: "1"
                    },
                    {cityName: "Palestine",latitude : "31.76212", longitude: "-95.63079", count: "1"
                    },
                    {cityName: "New York City",latitude : "40.71427", longitude: "-74.00597", count: "1"
                    },
                    {cityName: "Hamilton",latitude : "39.3995", longitude: "-84.56134", count: "1"
                    },
                    {cityName: "London",latitude : "51.50853", longitude: "-0.12574", count: "1"
                    },
                    {cityName: "Binghamton",latitude : "42.09869", longitude: "-75.91797", count: "1"
                    },
                    {cityName: "New Orleans",latitude : "29.95465", longitude: "-90.07507", count: "1"
                    },
                    {cityName: "Hartford",latitude : "41.76371", longitude: "-72.68509", count: "4"
                    },
                    {cityName: "Edinburgh",latitude : "55.95206", longitude: "-3.19648", count: "1"
                    },
                    {cityName: "Deerfield",latitude : "42.17114", longitude: "-87.84451", count: "1"
                    },
                    {cityName: "Philadelphia",latitude : "39.95233", longitude: "-75.16379", count: "2"
                    },
                    {cityName: "Norfolk",latitude : "42.02834", longitude: "-97.417", count: "1"
                    },
                    {cityName: "Highland",latitude : "40.42548", longitude: "-111.79447", count: "1"
                    }
                ]
            }
        ]
    },
    {authorName: "Burkett, Charles William",
    books: [
            {title: "Agriculture for BeginnersRevised Edition", cities: [
                    {cityName: "Brighton",latitude : "39.98526", longitude: "-104.82053", count: "1"
                    },
                    {cityName: "Bordeaux",latitude : "44.84044", longitude: "-0.5805", count: "11"
                    },
                    {cityName: "Hudson",latitude : "41.24006", longitude: "-81.44067", count: "1"
                    },
                    {cityName: "Brownsville",latitude : "40.66094", longitude: "-73.92014", count: "1"
                    },
                    {cityName: "Hamburg",latitude : "53.57532", longitude: "10.01534", count: "1"
                    },
                    {cityName: "Florida",latitude : "-34.09556", longitude: "-56.21417", count: "4"
                    },
                    {cityName: "San Jose",latitude : "37.33939", longitude: "-121.89496", count: "4"
                    },
                    {cityName: "Palestine",latitude : "31.76212", longitude: "-95.63079", count: "1"
                    },
                    {cityName: "Asia",latitude : "9.5506", longitude: "122.5164", count: "3"
                    },
                    {cityName: "Orpington",latitude : "51.37457", longitude: "0.09785", count: "1"
                    },
                    {cityName: "Virginia",latitude : "-28.10391", longitude: "26.86593", count: "5"
                    },
                    {cityName: "Paris",latitude : "33.66094", longitude: "-95.55551", count: "5"
                    },
                    {cityName: "Boston",latitude : "42.35843", longitude: "-71.05977", count: "1"
                    },
                    {cityName: "Holland",latitude : "42.78752", longitude: "-86.10893", count: "1"
                    }
                ]
            }
        ]
    },
    {authorName: "Hill, Daniel Harvey",
    books: [
            {title: "Agriculture for BeginnersRevised Edition", cities: [
                    {cityName: "Brighton",latitude : "39.98526", longitude: "-104.82053", count: "1"
                    },
                    {cityName: "Bordeaux",latitude : "44.84044", longitude: "-0.5805", count: "11"
                    },
                    {cityName: "Hudson",latitude : "41.24006", longitude: "-81.44067", count: "1"
                    },
                    {cityName: "Brownsville",latitude : "40.66094", longitude: "-73.92014", count: "1"
                    },
                    {cityName: "Hamburg",latitude : "53.57532", longitude: "10.01534", count: "1"
                    },
                    {cityName: "Florida",latitude : "-34.09556", longitude: "-56.21417", count: "4"
                    },
                    {cityName: "San Jose",latitude : "37.33939", longitude: "-121.89496", count: "4"
                    },
                    {cityName: "Palestine",latitude : "31.76212", longitude: "-95.63079", count: "1"
                    },
                    {cityName: "Asia",latitude : "9.5506", longitude: "122.5164", count: "3"
                    },
                    {cityName: "Orpington",latitude : "51.37457", longitude: "0.09785", count: "1"
                    },
                    {cityName: "Virginia",latitude : "-28.10391", longitude: "26.86593", count: "5"
                    },
                    {cityName: "Paris",latitude : "33.66094", longitude: "-95.55551", count: "5"
                    },
                    {cityName: "Boston",latitude : "42.35843", longitude: "-71.05977", count: "1"
                    },
                    {cityName: "Holland",latitude : "42.78752", longitude: "-86.10893", count: "1"
                    }
                ]
            }
        ]
    },
    {authorName: "Stevens, Frank Lincoln",
    books: [
            {title: "Agriculture for BeginnersRevised Edition", cities: [
                    {cityName: "Brighton",latitude : "39.98526", longitude: "-104.82053", count: "1"
                    },
                    {cityName: "Bordeaux",latitude : "44.84044", longitude: "-0.5805", count: "11"
                    },
                    {cityName: "Hudson",latitude : "41.24006", longitude: "-81.44067", count: "1"
                    },
                    {cityName: "Brownsville",latitude : "40.66094", longitude: "-73.92014", count: "1"
                    },
                    {cityName: "Hamburg",latitude : "53.57532", longitude: "10.01534", count: "1"
                    },
                    {cityName: "Florida",latitude : "-34.09556", longitude: "-56.21417", count: "4"
                    },
                    {cityName: "San Jose",latitude : "37.33939", longitude: "-121.89496", count: "4"
                    },
                    {cityName: "Palestine",latitude : "31.76212", longitude: "-95.63079", count: "1"
                    },
                    {cityName: "Asia",latitude : "9.5506", longitude: "122.5164", count: "3"
                    },
                    {cityName: "Orpington",latitude : "51.37457", longitude: "0.09785", count: "1"
                    },
                    {cityName: "Virginia",latitude : "-28.10391", longitude: "26.86593", count: "5"
                    },
                    {cityName: "Paris",latitude : "33.66094", longitude: "-95.55551", count: "5"
                    },
                    {cityName: "Boston",latitude : "42.35843", longitude: "-71.05977", count: "1"
                    },
                    {cityName: "Holland",latitude : "42.78752", longitude: "-86.10893", count: "1"
                    }
                ]
            }
        ]
    },
    {authorName: "Unknown",
    books: [
            {title: "The Story of the White Mouse", cities: []
            }
        ]
    },
    {authorName: "Ruskin, John",
    books: [
            {title: "Love's Meinie: Three Lectures on Greek and English Birds", cities: [
                    {cityName: "Bologna",latitude : "44.49381", longitude: "11.33875", count: "1"
                    },
                    {cityName: "Tunis",latitude : "36.81897", longitude: "10.16579", count: "1"
                    },
                    {cityName: "Lichfield",latitude : "52.68154", longitude: "-1.82549", count: "1"
                    },
                    {cityName: "Gibraltar",latitude : "36.14474", longitude: "-5.35257", count: "2"
                    },
                    {cityName: "York",latitude : "39.9626", longitude: "-76.72774", count: "2"
                    },
                    {cityName: "Pavia",latitude : "45.19205", longitude: "9.15917", count: "2"
                    },
                    {cityName: "Geneva",latitude : "41.88753", longitude: "-88.30535", count: "1"
                    },
                    {cityName: "Rouen",latitude : "49.44313", longitude: "1.09932", count: "1"
                    },
                    {cityName: "Phoenix",latitude : "33.44838", longitude: "-112.07404", count: "1"
                    },
                    {cityName: "Smyrna",latitude : "35.98284", longitude: "-86.5186", count: "1"
                    },
                    {cityName: "Oxford",latitude : "39.507", longitude: "-84.74523", count: "4"
                    },
                    {cityName: "Lubbock",latitude : "33.57786", longitude: "-101.85517", count: "1"
                    },
                    {cityName: "Lucca",latitude : "43.84369", longitude: "10.50447", count: "1"
                    },
                    {cityName: "Orkney",latitude : "-26.98023", longitude: "26.67272", count: "1"
                    },
                    {cityName: "Derby",latitude : "37.54557", longitude: "-97.26893", count: "1"
                    },
                    {cityName: "Hudson",latitude : "41.24006", longitude: "-81.44067", count: "2"
                    },
                    {cityName: "Stratford",latitude : "41.18454", longitude: "-73.13317", count: "1"
                    },
                    {cityName: "Venice",latitude : "33.99084", longitude: "-118.46008", count: "1"
                    },
                    {cityName: "Amiens",latitude : "49.9", longitude: "2.3", count: "1"
                    },
                    {cityName: "Abbeville",latitude : "50.10521", longitude: "1.83547", count: "1"
                    },
                    {cityName: "Milan",latitude : "45.46427", longitude: "9.18951", count: "1"
                    },
                    {cityName: "Margate",latitude : "-30.8636", longitude: "30.37052", count: "1"
                    },
                    {cityName: "Easton",latitude : "40.68843", longitude: "-75.22073", count: "1"
                    },
                    {cityName: "London",latitude : "51.50853", longitude: "-0.12574", count: "3"
                    },
                    {cityName: "Manchester",latitude : "42.99564", longitude: "-71.45479", count: "1"
                    },
                    {cityName: "Minden",latitude : "52.28953", longitude: "8.91455", count: "1"
                    },
                    {cityName: "Jamaica",latitude : "40.69149", longitude: "-73.80569", count: "2"
                    },
                    {cityName: "Durham",latitude : "35.99403", longitude: "-78.89862", count: "1"
                    },
                    {cityName: "Paris",latitude : "33.66094", longitude: "-95.55551", count: "3"
                    },
                    {cityName: "Norfolk",latitude : "42.02834", longitude: "-97.417", count: "1"
                    }
                ]
            }
        ]
    },
    {authorName: "Gruger, Frederic Rodrigo",
    books: [
            {title: "Rich Man, Poor Man", cities: [
                    {cityName: "New York City",latitude : "40.71427", longitude: "-74.00597", count: "1"
                    },
                    {cityName: "Hempstead",latitude : "40.70621", longitude: "-73.61874", count: "2"
                    },
                    {cityName: "Harlem",latitude : "40.80788", longitude: "-73.94542", count: "2"
                    },
                    {cityName: "Rochester",latitude : "43.15478", longitude: "-77.61556", count: "1"
                    },
                    {cityName: "London",latitude : "51.50853", longitude: "-0.12574", count: "1"
                    },
                    {cityName: "Pittsburgh",latitude : "40.44062", longitude: "-79.99589", count: "1"
                    },
                    {cityName: "Eastbourne",latitude : "50.76871", longitude: "0.28453", count: "5"
                    }
                ]
            }
        ]
    },
    {authorName: "Foster, Maximilian",
    books: [
            {title: "Rich Man, Poor Man", cities: [
                    {cityName: "New York City",latitude : "40.71427", longitude: "-74.00597", count: "1"
                    },
                    {cityName: "Hempstead",latitude : "40.70621", longitude: "-73.61874", count: "2"
                    },
                    {cityName: "Harlem",latitude : "40.80788", longitude: "-73.94542", count: "2"
                    },
                    {cityName: "Rochester",latitude : "43.15478", longitude: "-77.61556", count: "1"
                    },
                    {cityName: "London",latitude : "51.50853", longitude: "-0.12574", count: "1"
                    },
                    {cityName: "Pittsburgh",latitude : "40.44062", longitude: "-79.99589", count: "1"
                    },
                    {cityName: "Eastbourne",latitude : "50.76871", longitude: "0.28453", count: "5"
                    }
                ]
            }
        ]
    },
    {authorName: "Merrill, Frank T.",
    books: [
            {title: "Brenda's WardA Sequel to 'Amy in Acadia'", cities: [
                    {cityName: "Newport",latitude : "41.4901", longitude: "-71.31283", count: "1"
                    },
                    {cityName: "Dresden",latitude : "51.05089", longitude: "13.73832", count: "1"
                    },
                    {cityName: "Annapolis",latitude : "38.97845", longitude: "-76.49218", count: "8"
                    },
                    {cityName: "Radcliffe",latitude : "53.56178", longitude: "-2.32455", count: "2"
                    },
                    {cityName: "Bradford",latitude : "53.79391", longitude: "-1.75206", count: "1"
                    },
                    {cityName: "York",latitude : "39.9626", longitude: "-76.72774", count: "16"
                    },
                    {cityName: "Windsor",latitude : "40.47748", longitude: "-104.90136", count: "2"
                    },
                    {cityName: "Cambridge",latitude : "42.3751", longitude: "-71.10561", count: "19"
                    },
                    {cityName: "Wellesley",latitude : "42.29649", longitude: "-71.29256", count: "5"
                    },
                    {cityName: "Germantown",latitude : "43.22862", longitude: "-88.11037", count: "2"
                    },
                    {cityName: "Washington",latitude : "37.13054", longitude: "-113.50829", count: "9"
                    },
                    {cityName: "Staten Island",latitude : "40.56233", longitude: "-74.13986", count: "1"
                    },
                    {cityName: "Rome",latitude : "43.21285", longitude: "-75.45573", count: "1"
                    },
                    {cityName: "Andover",latitude : "45.2333", longitude: "-93.29134", count: "1"
                    },
                    {cityName: "Chelsea",latitude : "42.39176", longitude: "-71.03283", count: "2"
                    },
                    {cityName: "Salem",latitude : "44.9429", longitude: "-123.0351", count: "2"
                    },
                    {cityName: "New Rochelle",latitude : "40.91149", longitude: "-73.78235", count: "1"
                    },
                    {cityName: "Somerset",latitude : "40.4976", longitude: "-74.48849", count: "2"
                    },
                    {cityName: "Boston",latitude : "42.35843", longitude: "-71.05977", count: "61"
                    },
                    {cityName: "Holland",latitude : "42.78752", longitude: "-86.10893", count: "1"
                    },
                    {cityName: "Liverpool",latitude : "53.41058", longitude: "-2.97794", count: "1"
                    },
                    {cityName: "Brighton",latitude : "39.98526", longitude: "-104.82053", count: "1"
                    },
                    {cityName: "Waldorf",latitude : "38.62456", longitude: "-76.93914", count: "1"
                    },
                    {cityName: "Chicago",latitude : "41.85003", longitude: "-87.65005", count: "16"
                    },
                    {cityName: "Plymouth",latitude : "45.01052", longitude: "-93.45551", count: "12"
                    },
                    {cityName: "Stratford",latitude : "41.18454", longitude: "-73.13317", count: "81"
                    },
                    {cityName: "Concord",latitude : "37.97798", longitude: "-122.03107", count: "2"
                    },
                    {cityName: "South Shore",latitude : "41.76198", longitude: "-87.57783", count: "1"
                    },
                    {cityName: "Whittier",latitude : "33.97918", longitude: "-118.03284", count: "1"
                    },
                    {cityName: "San Rafael",latitude : "37.97353", longitude: "-122.53109", count: "1"
                    },
                    {cityName: "Florida",latitude : "-34.09556", longitude: "-56.21417", count: "2"
                    },
                    {cityName: "San Francisco",latitude : "37.77493", longitude: "-122.41942", count: "5"
                    },
                    {cityName: "Brookline",latitude : "42.33176", longitude: "-71.12116", count: "3"
                    },
                    {cityName: "Cheshire",latitude : "41.49899", longitude: "-72.90066", count: "1"
                    },
                    {cityName: "New Haven",latitude : "41.0706", longitude: "-85.01441", count: "1"
                    },
                    {cityName: "Long Beach",latitude : "33.76696", longitude: "-118.18923", count: "1"
                    },
                    {cityName: "London",latitude : "51.50853", longitude: "-0.12574", count: "3"
                    },
                    {cityName: "Trenton",latitude : "40.21705", longitude: "-74.74294", count: "1"
                    },
                    {cityName: "Monterey",latitude : "36.60024", longitude: "-121.89468", count: "1"
                    },
                    {cityName: "Yarmouth",latitude : "41.70567", longitude: "-70.22863", count: "3"
                    },
                    {cityName: "North Shore",latitude : "-36.8", longitude: "174.75", count: "1"
                    },
                    {cityName: "Portsmouth",latitude : "41.60232", longitude: "-71.25033", count: "27"
                    },
                    {cityName: "Paris",latitude : "33.66094", longitude: "-95.55551", count: "1"
                    },
                    {cityName: "Philadelphia",latitude : "39.95233", longitude: "-75.16379", count: "8"
                    },
                    {cityName: "Riverside",latitude : "33.95335", longitude: "-117.39616", count: "1"
                    }
                ]
            }
        ]
    },
    {authorName: "Reed, Helen Leah",
    books: [
            {title: "Brenda's WardA Sequel to 'Amy in Acadia'", cities: [
                    {cityName: "Newport",latitude : "41.4901", longitude: "-71.31283", count: "1"
                    },
                    {cityName: "Dresden",latitude : "51.05089", longitude: "13.73832", count: "1"
                    },
                    {cityName: "Annapolis",latitude : "38.97845", longitude: "-76.49218", count: "8"
                    },
                    {cityName: "Radcliffe",latitude : "53.56178", longitude: "-2.32455", count: "2"
                    },
                    {cityName: "Bradford",latitude : "53.79391", longitude: "-1.75206", count: "1"
                    },
                    {cityName: "York",latitude : "39.9626", longitude: "-76.72774", count: "16"
                    },
                    {cityName: "Windsor",latitude : "40.47748", longitude: "-104.90136", count: "2"
                    },
                    {cityName: "Cambridge",latitude : "42.3751", longitude: "-71.10561", count: "19"
                    },
                    {cityName: "Wellesley",latitude : "42.29649", longitude: "-71.29256", count: "5"
                    },
                    {cityName: "Germantown",latitude : "43.22862", longitude: "-88.11037", count: "2"
                    },
                    {cityName: "Washington",latitude : "37.13054", longitude: "-113.50829", count: "9"
                    },
                    {cityName: "Staten Island",latitude : "40.56233", longitude: "-74.13986", count: "1"
                    },
                    {cityName: "Rome",latitude : "43.21285", longitude: "-75.45573", count: "1"
                    },
                    {cityName: "Andover",latitude : "45.2333", longitude: "-93.29134", count: "1"
                    },
                    {cityName: "Chelsea",latitude : "42.39176", longitude: "-71.03283", count: "2"
                    },
                    {cityName: "Salem",latitude : "44.9429", longitude: "-123.0351", count: "2"
                    },
                    {cityName: "New Rochelle",latitude : "40.91149", longitude: "-73.78235", count: "1"
                    },
                    {cityName: "Somerset",latitude : "40.4976", longitude: "-74.48849", count: "2"
                    },
                    {cityName: "Boston",latitude : "42.35843", longitude: "-71.05977", count: "61"
                    },
                    {cityName: "Holland",latitude : "42.78752", longitude: "-86.10893", count: "1"
                    },
                    {cityName: "Liverpool",latitude : "53.41058", longitude: "-2.97794", count: "1"
                    },
                    {cityName: "Brighton",latitude : "39.98526", longitude: "-104.82053", count: "1"
                    },
                    {cityName: "Waldorf",latitude : "38.62456", longitude: "-76.93914", count: "1"
                    },
                    {cityName: "Chicago",latitude : "41.85003", longitude: "-87.65005", count: "16"
                    },
                    {cityName: "Plymouth",latitude : "45.01052", longitude: "-93.45551", count: "12"
                    },
                    {cityName: "Stratford",latitude : "41.18454", longitude: "-73.13317", count: "81"
                    },
                    {cityName: "Concord",latitude : "37.97798", longitude: "-122.03107", count: "2"
                    },
                    {cityName: "South Shore",latitude : "41.76198", longitude: "-87.57783", count: "1"
                    },
                    {cityName: "Whittier",latitude : "33.97918", longitude: "-118.03284", count: "1"
                    },
                    {cityName: "San Rafael",latitude : "37.97353", longitude: "-122.53109", count: "1"
                    },
                    {cityName: "Florida",latitude : "-34.09556", longitude: "-56.21417", count: "2"
                    },
                    {cityName: "San Francisco",latitude : "37.77493", longitude: "-122.41942", count: "5"
                    },
                    {cityName: "Brookline",latitude : "42.33176", longitude: "-71.12116", count: "3"
                    },
                    {cityName: "Cheshire",latitude : "41.49899", longitude: "-72.90066", count: "1"
                    },
                    {cityName: "New Haven",latitude : "41.0706", longitude: "-85.01441", count: "1"
                    },
                    {cityName: "Long Beach",latitude : "33.76696", longitude: "-118.18923", count: "1"
                    },
                    {cityName: "London",latitude : "51.50853", longitude: "-0.12574", count: "3"
                    },
                    {cityName: "Trenton",latitude : "40.21705", longitude: "-74.74294", count: "1"
                    },
                    {cityName: "Monterey",latitude : "36.60024", longitude: "-121.89468", count: "1"
                    },
                    {cityName: "Yarmouth",latitude : "41.70567", longitude: "-70.22863", count: "3"
                    },
                    {cityName: "North Shore",latitude : "-36.8", longitude: "174.75", count: "1"
                    },
                    {cityName: "Portsmouth",latitude : "41.60232", longitude: "-71.25033", count: "27"
                    },
                    {cityName: "Paris",latitude : "33.66094", longitude: "-95.55551", count: "1"
                    },
                    {cityName: "Philadelphia",latitude : "39.95233", longitude: "-75.16379", count: "8"
                    },
                    {cityName: "Riverside",latitude : "33.95335", longitude: "-117.39616", count: "1"
                    }
                ]
            }
        ]
    },
    {authorName: "Abbott, Jane",
    books: [
            {title: "Red-Robin", cities: [
                    {cityName: "New York City",latitude : "40.71427", longitude: "-74.00597", count: "1"
                    },
                    {cityName: "Queens",latitude : "40.68149", longitude: "-73.83652", count: "2"
                    },
                    {cityName: "Brussels",latitude : "50.85045", longitude: "4.34878", count: "1"
                    },
                    {cityName: "Cornwall",latitude : "45.01809", longitude: "-74.72815", count: "9"
                    },
                    {cityName: "Milan",latitude : "45.46427", longitude: "9.18951", count: "1"
                    },
                    {cityName: "Bristol",latitude : "41.67176", longitude: "-72.94927", count: "1"
                    },
                    {cityName: "London",latitude : "51.50853", longitude: "-0.12574", count: "3"
                    },
                    {cityName: "Washington",latitude : "37.13054", longitude: "-113.50829", count: "1"
                    },
                    {cityName: "Paris",latitude : "33.66094", longitude: "-95.55551", count: "1"
                    },
                    {cityName: "Miami",latitude : "25.77427", longitude: "-80.19366", count: "1"
                    },
                    {cityName: "Boston",latitude : "42.35843", longitude: "-71.05977", count: "1"
                    }
                ]
            }
        ]
    },
    {authorName: "Richards, Harriet Roosevelt",
    books: [
            {title: "Red-Robin", cities: [
                    {cityName: "New York City",latitude : "40.71427", longitude: "-74.00597", count: "1"
                    },
                    {cityName: "Queens",latitude : "40.68149", longitude: "-73.83652", count: "2"
                    },
                    {cityName: "Brussels",latitude : "50.85045", longitude: "4.34878", count: "1"
                    },
                    {cityName: "Cornwall",latitude : "45.01809", longitude: "-74.72815", count: "9"
                    },
                    {cityName: "Milan",latitude : "45.46427", longitude: "9.18951", count: "1"
                    },
                    {cityName: "Bristol",latitude : "41.67176", longitude: "-72.94927", count: "1"
                    },
                    {cityName: "London",latitude : "51.50853", longitude: "-0.12574", count: "3"
                    },
                    {cityName: "Washington",latitude : "37.13054", longitude: "-113.50829", count: "1"
                    },
                    {cityName: "Paris",latitude : "33.66094", longitude: "-95.55551", count: "1"
                    },
                    {cityName: "Miami",latitude : "25.77427", longitude: "-80.19366", count: "1"
                    },
                    {cityName: "Boston",latitude : "42.35843", longitude: "-71.05977", count: "1"
                    }
                ]
            }
        ]
    },
    {authorName: "Bourinot, John George",
    books: [
            {title: "The Intellectual Development of the Canadian People: An Historical Review", cities: [
                    {cityName: "New Brunswick",latitude : "40.48622", longitude: "-74.45182", count: "2"
                    },
                    {cityName: "Faribault",latitude : "44.29496", longitude: "-93.26883", count: "1"
                    },
                    {cityName: "Charlottetown",latitude : "46.23899", longitude: "-63.13414", count: "2"
                    },
                    {cityName: "Sherbrooke",latitude : "45.40008", longitude: "-71.89908", count: "1"
                    },
                    {cityName: "York",latitude : "39.9626", longitude: "-76.72774", count: "4"
                    },
                    {cityName: "Wyoming",latitude : "42.91336", longitude: "-85.70531", count: "1"
                    },
                    {cityName: "Windsor",latitude : "40.47748", longitude: "-104.90136", count: "2"
                    },
                    {cityName: "Fredericton",latitude : "45.94541", longitude: "-66.66558", count: "2"
                    },
                    {cityName: "Kingston",latitude : "41.92704", longitude: "-73.99736", count: "7"
                    },
                    {cityName: "Cambridge",latitude : "42.3751", longitude: "-71.10561", count: "3"
                    },
                    {cityName: "Washington",latitude : "37.13054", longitude: "-113.50829", count: "1"
                    },
                    {cityName: "Republic",latitude : "37.12005", longitude: "-93.48019", count: "1"
                    },
                    {cityName: "Brockville",latitude : "44.59132", longitude: "-75.68705", count: "1"
                    },
                    {cityName: "Winnipeg",latitude : "49.8844", longitude: "-97.14704", count: "1"
                    },
                    {cityName: "Rome",latitude : "43.21285", longitude: "-75.45573", count: "1"
                    },
                    {cityName: "Hamilton",latitude : "39.3995", longitude: "-84.56134", count: "3"
                    },
                    {cityName: "Edinburgh",latitude : "55.95206", longitude: "-3.19648", count: "1"
                    },
                    {cityName: "Ottawa",latitude : "41.34559", longitude: "-88.84258", count: "9"
                    },
                    {cityName: "Dorchester",latitude : "50.71667", longitude: "-2.43333", count: "1"
                    },
                    {cityName: "Boston",latitude : "42.35843", longitude: "-71.05977", count: "5"
                    },
                    {cityName: "Albany",latitude : "44.63651", longitude: "-123.10593", count: "1"
                    },
                    {cityName: "Nanaimo",latitude : "49.16638", longitude: "-123.94003", count: "1"
                    },
                    {cityName: "Guelph",latitude : "43.54594", longitude: "-80.25599", count: "1"
                    },
                    {cityName: "Victoria",latitude : "28.80527", longitude: "-97.0036", count: "1"
                    },
                    {cityName: "Berlin",latitude : "52.52437", longitude: "13.41053", count: "1"
                    },
                    {cityName: "Perth",latitude : "56.39522", longitude: "-3.43139", count: "1"
                    },
                    {cityName: "Belleville",latitude : "40.79371", longitude: "-74.15014", count: "2"
                    },
                    {cityName: "Stratford",latitude : "41.18454", longitude: "-73.13317", count: "1"
                    },
                    {cityName: "Sarnia",latitude : "42.97866", longitude: "-82.40407", count: "1"
                    },
                    {cityName: "Halifax",latitude : "53.71667", longitude: "-1.85", count: "18"
                    },
                    {cityName: "San Francisco",latitude : "37.77493", longitude: "-122.41942", count: "1"
                    },
                    {cityName: "Laval",latitude : "48.0732", longitude: "-0.7634", count: "1"
                    },
                    {cityName: "Columbia",latitude : "35.61507", longitude: "-87.03528", count: "1"
                    },
                    {cityName: "Cobourg",latitude : "43.95977", longitude: "-78.16515", count: "1"
                    },
                    {cityName: "London",latitude : "51.50853", longitude: "-0.12574", count: "6"
                    },
                    {cityName: "New Westminster",latitude : "49.20678", longitude: "-122.91092", count: "1"
                    },
                    {cityName: "Oakville",latitude : "38.47005", longitude: "-90.30456", count: "1"
                    },
                    {cityName: "Newark",latitude : "37.52966", longitude: "-122.04024", count: "1"
                    },
                    {cityName: "Bay",latitude : "14.18368", longitude: "121.28554", count: "1"
                    },
                    {cityName: "Durham",latitude : "35.99403", longitude: "-78.89862", count: "3"
                    },
                    {cityName: "Yarmouth",latitude : "41.70567", longitude: "-70.22863", count: "1"
                    },
                    {cityName: "Ontario",latitude : "34.06334", longitude: "-117.65089", count: "25"
                    },
                    {cityName: "Toronto",latitude : "43.70011", longitude: "-79.4163", count: "33"
                    },
                    {cityName: "Paris",latitude : "33.66094", longitude: "-95.55551", count: "3"
                    },
                    {cityName: "Philadelphia",latitude : "39.95233", longitude: "-75.16379", count: "3"
                    }
                ]
            }
        ]
    },
    {authorName: "Piper, H. Beam",
    books: [
            {title: "Murder in the Gunroom", cities: [
                    {cityName: "Milwaukee",latitude : "43.0389", longitude: "-87.90647", count: "2"
                    },
                    {cityName: "Charleston",latitude : "38.34982", longitude: "-81.63262", count: "1"
                    },
                    {cityName: "Topeka",latitude : "39.04833", longitude: "-95.67804", count: "1"
                    },
                    {cityName: "Radom",latitude : "51.40253", longitude: "21.14714", count: "1"
                    },
                    {cityName: "Rosemont",latitude : "38.55185", longitude: "-121.36467", count: "19"
                    },
                    {cityName: "Waldorf",latitude : "38.62456", longitude: "-76.93914", count: "1"
                    },
                    {cityName: "Chicago",latitude : "41.85003", longitude: "-87.65005", count: "2"
                    },
                    {cityName: "Berlin",latitude : "52.52437", longitude: "13.41053", count: "1"
                    },
                    {cityName: "Cincinnati",latitude : "39.12711", longitude: "-84.51439", count: "1"
                    },
                    {cityName: "Kingsville",latitude : "27.51587", longitude: "-97.85611", count: "2"
                    },
                    {cityName: "Hollywood",latitude : "34.09834", longitude: "-118.32674", count: "1"
                    },
                    {cityName: "Gresham",latitude : "45.49818", longitude: "-122.43148", count: "8"
                    },
                    {cityName: "Paterson",latitude : "40.91677", longitude: "-74.17181", count: "1"
                    },
                    {cityName: "Cabot",latitude : "34.97453", longitude: "-92.01653", count: "1"
                    },
                    {cityName: "Springfield",latitude : "44.04624", longitude: "-123.02203", count: "4"
                    },
                    {cityName: "London",latitude : "51.50853", longitude: "-0.12574", count: "2"
                    },
                    {cityName: "Mexico",latitude : "15.0646", longitude: "120.7198", count: "1"
                    },
                    {cityName: "Hiroshima",latitude : "34.4", longitude: "132.45", count: "1"
                    },
                    {cityName: "Jamaica",latitude : "40.69149", longitude: "-73.80569", count: "1"
                    },
                    {cityName: "Virginia",latitude : "-28.10391", longitude: "26.86593", count: "3"
                    },
                    {cityName: "Philadelphia",latitude : "39.95233", longitude: "-75.16379", count: "1"
                    },
                    {cityName: "Holland",latitude : "42.78752", longitude: "-86.10893", count: "1"
                    },
                    {cityName: "Highland",latitude : "40.42548", longitude: "-111.79447", count: "1"
                    },
                    {cityName: "Chesterfield",latitude : "38.66311", longitude: "-90.57707", count: "1"
                    }
                ]
            }
        ]
    },
    {authorName: "Harrison, James",
    books: [
            {title: "The Life of the Right Honourable Horatio Lord Viscount Nelson, Volume 1", cities: [
                    {cityName: "Tunis",latitude : "36.81897", longitude: "10.16579", count: "2"
                    },
                    {cityName: "Pisa",latitude : "43.70853", longitude: "10.4036", count: "1"
                    },
                    {cityName: "Gibraltar",latitude : "36.14474", longitude: "-5.35257", count: "22"
                    },
                    {cityName: "Florence",latitude : "33.03145", longitude: "-111.38734", count: "1"
                    },
                    {cityName: "Albuquerque",latitude : "35.08449", longitude: "-106.65114", count: "1"
                    },
                    {cityName: "Glasgow",latitude : "55.86515", longitude: "-4.25763", count: "1"
                    },
                    {cityName: "Cadiz",latitude : "10.9465", longitude: "123.288", count: "23"
                    },
                    {cityName: "Lagos",latitude : "37.10202", longitude: "-8.67422", count: "1"
                    },
                    {cityName: "Copenhagen",latitude : "55.67594", longitude: "12.56553", count: "2"
                    },
                    {cityName: "Palermo",latitude : "38.13205", longitude: "13.33561", count: "1"
                    },
                    {cityName: "Brisbane",latitude : "-27.46794", longitude: "153.02809", count: "1"
                    },
                    {cityName: "Rome",latitude : "43.21285", longitude: "-75.45573", count: "10"
                    },
                    {cityName: "Bristol",latitude : "41.67176", longitude: "-72.94927", count: "3"
                    },
                    {cityName: "Syracuse",latitude : "41.08939", longitude: "-112.06467", count: "5"
                    },
                    {cityName: "Genoa",latitude : "44.40478", longitude: "8.94439", count: "2"
                    },
                    {cityName: "Alexandria",latitude : "38.80484", longitude: "-77.04692", count: "42"
                    },
                    {cityName: "Boston",latitude : "42.35843", longitude: "-71.05977", count: "2"
                    },
                    {cityName: "Providence",latitude : "41.82399", longitude: "-71.41283", count: "1"
                    },
                    {cityName: "Barcelona",latitude : "10.13625", longitude: "-64.68618", count: "1"
                    },
                    {cityName: "Lisbon",latitude : "38.71667", longitude: "-9.13333", count: "7"
                    },
                    {cityName: "Plymouth",latitude : "45.01052", longitude: "-93.45551", count: "1"
                    },
                    {cityName: "Bastia",latitude : "42.70278", longitude: "9.45", count: "5"
                    },
                    {cityName: "Suffolk",latitude : "36.72836", longitude: "-76.58496", count: "2"
                    },
                    {cityName: "Worcester",latitude : "-33.64651", longitude: "19.44852", count: "2"
                    },
                    {cityName: "Madrid",latitude : "40.4165", longitude: "-3.70256", count: "2"
                    },
                    {cityName: "London",latitude : "51.50853", longitude: "-0.12574", count: "25"
                    },
                    {cityName: "Portsmouth",latitude : "41.60232", longitude: "-71.25033", count: "6"
                    },
                    {cityName: "Jamaica",latitude : "40.69149", longitude: "-73.80569", count: "23"
                    },
                    {cityName: "Santa Cruz",latitude : "36.97412", longitude: "-122.0308", count: "13"
                    },
                    {cityName: "Norfolk",latitude : "42.02834", longitude: "-97.417", count: "14"
                    },
                    {cityName: "Rosetta",latitude : "31.39951", longitude: "30.41718", count: "5"
                    },
                    {cityName: "Albemarle",latitude : "35.35014", longitude: "-80.20006", count: "6"
                    },
                    {cityName: "Marlborough",latitude : "42.34593", longitude: "-71.55229", count: "1"
                    },
                    {cityName: "Algiers",latitude : "36.73225", longitude: "3.08746", count: "1"
                    },
                    {cityName: "Caserta",latitude : "41.07262", longitude: "14.33231", count: "1"
                    },
                    {cityName: "Windham",latitude : "41.69982", longitude: "-72.15702", count: "1"
                    },
                    {cityName: "Windsor",latitude : "40.47748", longitude: "-104.90136", count: "1"
                    },
                    {cityName: "Kingston",latitude : "41.92704", longitude: "-73.99736", count: "1"
                    },
                    {cityName: "Gaeta",latitude : "41.21408", longitude: "13.57082", count: "1"
                    },
                    {cityName: "Washington",latitude : "37.13054", longitude: "-113.50829", count: "1"
                    },
                    {cityName: "Corfu",latitude : "39.62069", longitude: "19.91975", count: "4"
                    },
                    {cityName: "Lima",latitude : "40.74255", longitude: "-84.10523", count: "1"
                    },
                    {cityName: "San Nicolas",latitude : "18.1725", longitude: "120.5953", count: "13"
                    },
                    {cityName: "Damietta",latitude : "31.41648", longitude: "31.81332", count: "2"
                    },
                    {cityName: "Tripoli",latitude : "32.88743", longitude: "13.18733", count: "1"
                    },
                    {cityName: "Naples",latitude : "26.14234", longitude: "-81.79596", count: "95"
                    },
                    {cityName: "Vienna",latitude : "38.90122", longitude: "-77.26526", count: "3"
                    },
                    {cityName: "Chatham",latitude : "41.74115", longitude: "-87.61255", count: "5"
                    },
                    {cityName: "San Juan",latitude : "26.18924", longitude: "-98.15529", count: "9"
                    },
                    {cityName: "Ajaccio",latitude : "41.91886", longitude: "8.73812", count: "1"
                    },
                    {cityName: "Norwich",latitude : "41.52426", longitude: "-72.07591", count: "3"
                    },
                    {cityName: "Jupiter",latitude : "26.93422", longitude: "-80.09421", count: "1"
                    },
                    {cityName: "Spanish Town",latitude : "17.99107", longitude: "-76.95742", count: "1"
                    },
                    {cityName: "Cairo",latitude : "30.06263", longitude: "31.24967", count: "3"
                    },
                    {cityName: "Mexico",latitude : "15.0646", longitude: "120.7198", count: "1"
                    },
                    {cityName: "Toulon",latitude : "43.12442", longitude: "5.92836", count: "32"
                    },
                    {cityName: "Paris",latitude : "33.66094", longitude: "-95.55551", count: "1"
                    }
                ]
            }
        ]
    },
    {authorName: "Crosby, Raymond Moreau",
    books: [
            {title: "Amazing Grace, Who Proves That Virtue Has Its Silver Lining", cities: [
                    {cityName: "Nottingham",latitude : "52.9536", longitude: "-1.15047", count: "1"
                    },
                    {cityName: "Liverpool",latitude : "53.41058", longitude: "-2.97794", count: "1"
                    },
                    {cityName: "Providence",latitude : "41.82399", longitude: "-71.41283", count: "1"
                    },
                    {cityName: "Gibraltar",latitude : "36.14474", longitude: "-5.35257", count: "1"
                    },
                    {cityName: "Savannah",latitude : "32.08354", longitude: "-81.09983", count: "1"
                    },
                    {cityName: "Chicago",latitude : "41.85003", longitude: "-87.65005", count: "1"
                    },
                    {cityName: "Hyde Park",latitude : "41.7942", longitude: "-87.59394", count: "1"
                    },
                    {cityName: "Florence",latitude : "33.03145", longitude: "-111.38734", count: "1"
                    },
                    {cityName: "Glasgow",latitude : "55.86515", longitude: "-4.25763", count: "1"
                    },
                    {cityName: "Birmingham",latitude : "42.5467", longitude: "-83.21132", count: "2"
                    },
                    {cityName: "Washington",latitude : "37.13054", longitude: "-113.50829", count: "1"
                    },
                    {cityName: "Venice",latitude : "33.99084", longitude: "-118.46008", count: "1"
                    },
                    {cityName: "Chester",latitude : "37.35682", longitude: "-77.44165", count: "1"
                    },
                    {cityName: "Guilford",latitude : "41.28899", longitude: "-72.68176", count: "2"
                    },
                    {cityName: "London",latitude : "51.50853", longitude: "-0.12574", count: "19"
                    },
                    {cityName: "Sheffield",latitude : "53.38297", longitude: "-1.4659", count: "1"
                    },
                    {cityName: "Salem",latitude : "44.9429", longitude: "-123.0351", count: "1"
                    },
                    {cityName: "New Orleans",latitude : "29.95465", longitude: "-90.07507", count: "1"
                    },
                    {cityName: "Pittsburgh",latitude : "40.44062", longitude: "-79.99589", count: "8"
                    },
                    {cityName: "Boston",latitude : "42.35843", longitude: "-71.05977", count: "2"
                    }
                ]
            }
        ]
    },
    {authorName: "Sharber, Kate Trimble",
    books: [
            {title: "Amazing Grace, Who Proves That Virtue Has Its Silver Lining", cities: [
                    {cityName: "Nottingham",latitude : "52.9536", longitude: "-1.15047", count: "1"
                    },
                    {cityName: "Liverpool",latitude : "53.41058", longitude: "-2.97794", count: "1"
                    },
                    {cityName: "Providence",latitude : "41.82399", longitude: "-71.41283", count: "1"
                    },