cityId	cityName	latitude	longitude	population	countryCode	continent
3040051	les Escaldes	42.50729	1.53414	15853	AD	Europe/Andorra
3041563	Andorra la Vella	42.50779	1.52109	20430	AD	Europe/Andorra
290594	Umm al Qaywayn	25.56473	55.55517	44411	AE	Asia/Dubai
291074	Ras al-Khaimah	25.78953	55.9432	115949	AE	Asia/Dubai
291696	Khawr Fakkān	25.33132	56.34199	33575	AE	Asia/Dubai
292223	Dubai	25.0657	55.17128	1137347	AE	Asia/Dubai
292231	Dibba Al-Fujairah	25.59246	56.26176	30000	AE	Asia/Dubai
292239	Dibba Al-Hisn	25.61955	56.27291	26395	AE	Asia/Dubai
292672	Sharjah	25.33737	55.41206	1324473	AE	Asia/Dubai
292688	Ar Ruways	24.11028	52.73056	16000	AE	Asia/Dubai
292878	Al Fujayrah	25.11641	56.34141	62415	AE	Asia/Dubai
292913	Al Ain	24.19167	55.76056	408733	AE	Asia/Dubai
292932	Ajman	25.41111	55.43504	226172	AE	Asia/Dubai
292953	Adh Dhayd	25.28812	55.88157	24716	AE	Asia/Dubai
292968	Abu Dhabi	24.46667	54.36667	603492	AE	Asia/Dubai
12042053	Musaffah	24.35893	54.48267	243341	AE	Asia/Dubai
1120985	Zaranj	30.95962	61.86037	49851	AF	Asia/Kabul
1123004	Taloqan	36.73605	69.53451	64256	AF	Asia/Kabul
1125155	Shīnḏanḏ	33.30294	62.1474	29264	AF	Asia/Kabul
1125444	Shibirghān	36.66757	65.7529	55641	AF	Asia/Kabul
1125896	Shahrak	34.10737	64.3052	15967	AF	Asia/Kabul
1127110	Sar-e Pul	36.21544	65.93249	52121	AF	Asia/Kabul
1127628	Sang-e Chārak	35.84972	66.43694	15377	AF	Asia/Kabul
1127768	Aībak	36.26468	68.01551	47823	AF	Asia/Kabul
1128265	Rustāq	37.12604	69.83045	25636	AF	Asia/Kabul
1129516	Qarqīn	37.41853	66.04358	15018	AF	Asia/Kabul
1129648	Qarāwul	37.21959	68.7802	24544	AF	Asia/Kabul
1130490	Pul-e Khumrī	35.94458	68.71512	56369	AF	Asia/Kabul
1131316	Paghmān	34.58787	68.95091	49157	AF	Asia/Kabul
1132495	Nahrīn	36.0649	69.13343	22363	AF	Asia/Kabul
1133453	Maymana	35.92139	64.78361	75900	AF	Asia/Kabul
1133574	Mehtar Lām	34.67139	70.20944	17345	AF	Asia/Kabul
1133616	Mazār-e Sharīf	36.70904	67.11087	303282	AF	Asia/Kabul
1134720	Lashkar Gāh	31.59382	64.37161	43934	AF	Asia/Kabul
1135158	Kushk	33.29565	61.95221	16952	AF	Asia/Kabul
1135689	Kunduz	36.72895	68.857	161902	AF	Asia/Kabul
1136469	Khōst	33.33951	69.92041	96123	AF	Asia/Kabul
1136575	Khulm	36.69736	67.69826	64933	AF	Asia/Kabul
1136863	Khāsh	31.52919	62.79055	15133	AF	Asia/Kabul
1137168	Khanabad	36.6825	69.11556	71531	AF	Asia/Kabul
1137807	Karukh	34.48108	62.5863	17484	AF	Asia/Kabul
1138336	Kandahār	31.61332	65.71013	391190	AF	Asia/Kabul
1138958	Kabul	34.52813	69.17233	3043532	AF	Asia/Kabul
1139715	Jalālābād	34.42647	70.45153	200331	AF	Asia/Kabul
1139807	Jabal os Saraj	35.11833	69.23778	15032	AF	Asia/Kabul
1140026	Herāt	34.34817	62.19967	272806	AF	Asia/Kabul
1141089	Ghormach	35.73062	63.78264	30000	AF	Asia/Kabul
1141269	Ghazni	33.55391	68.42096	141000	AF	Asia/Kabul
1141540	Gereshk	31.82089	64.57005	43588	AF	Asia/Kabul
1141857	Gardez	33.59744	69.22592	103601	AF	Asia/Kabul
1142170	Fayzabad	37.11664	70.58002	44421	AF	Asia/Kabul
1142264	Farah	32.37451	62.11638	43561	AF	Asia/Kabul
1142404	Kafir Qala	34.66667	61.06667	18086	AF	Asia/Kabul
1145352	Charikar	35.01361	69.17139	53676	AF	Asia/Kabul
1147066	Baraki Barak	33.96744	68.9492	22305	AF	Asia/Kabul
1147242	Bāmyān	34.82156	67.82734	61863	AF	Asia/Kabul
1147290	Balkh	36.75635	66.8972	114883	AF	Asia/Kabul
1147540	Baghlān	36.13068	68.70829	108449	AF	Asia/Kabul
1148106	Ārt Khwājah	37.08571	69.47958	18623	AF	Asia/Kabul
1148205	Āsmār	35.03333	71.35809	15708	AF	Asia/Kabul
1148311	Asadābād	34.87311	71.14697	48400	AF	Asia/Kabul
1148658	Andkhōy	36.95293	65.12376	29208	AF	Asia/Kabul
1429434	Bāzārak	35.31292	69.51519	65000	AF	Asia/Kabul
1469706	Markaz-e Woluswalī-ye Āchīn	34.12583	70.70778	15098	AF	Asia/Kabul
3576022	Saint John’s	17.12096	-61.84329	24226	AG	America/Antigua
3573374	The Valley	18.21704	-63.05783	2035	AI	America/Anguilla
363243	Sarandë	39.87534	20.00477	15147	AL	Europe/Tirane
781988	Pogradec	40.9025	20.6525	61530	AL	Europe/Tirane
782661	Kukës	42.07694	20.42194	17832	AL	Europe/Tirane
782756	Korçë	40.61861	20.78083	58259	AL	Europe/Tirane
783148	Gjirokastër	40.07583	20.13889	23437	AL	Europe/Tirane
783263	Elbasan	41.1125	20.08222	100903	AL	Europe/Tirane
783493	Burrel	41.61028	20.00889	15405	AL	Europe/Tirane
3183719	Vlorë	40.4686	19.48318	89546	AL	Europe/Tirane
3183875	Tirana	41.3275	19.81889	374801	AL	Europe/Tirane
3184081	Shkodër	42.06828	19.51258	88245	AL	Europe/Tirane
3184517	Patos Fshat	40.64278	19.65083	22679	AL	Europe/Tirane
3184518	Patos	40.68333	19.61944	60000	AL	Europe/Tirane
3184862	Lushnjë	40.94194	19.705	41469	AL	Europe/Tirane
3184935	Lezhë	41.78361	19.64361	18695	AL	Europe/Tirane
3185012	Laç	41.63556	19.71306	24825	AL	Europe/Tirane
3185060	Kuçovë	40.80028	19.91667	18166	AL	Europe/Tirane
3185082	Krujë	41.50917	19.79278	21286	AL	Europe/Tirane
3185211	Kavajë	41.18556	19.55694	29354	AL	Europe/Tirane
3185670	Fier-Çifçi	40.71667	19.56667	60995	AL	Europe/Tirane
3185672	Fier	40.72389	19.55611	56297	AL	Europe/Tirane
3185728	Durrës	41.32355	19.45469	122034	AL	Europe/Tirane
3186084	Berat	40.70583	19.95222	46866	AL	Europe/Tirane
174875	Kapan	39.20755	46.40576	33160	AM	Asia/Yerevan
174895	Goris	39.51111	46.34168	20379	AM	Asia/Yerevan
174972	Hats’avan	39.46405	45.97047	15208	AM	Asia/Yerevan
174979	Artashat	39.96144	44.54447	20562	AM	Asia/Yerevan
174991	Ararat	39.83069	44.70569	28832	AM	Asia/Yerevan
616052	Yerevan	40.18111	44.51361	1093485	AM	Asia/Yerevan
616062	Vagharshapat	40.16557	44.29462	46540	AM	Asia/Yerevan
616194	Step’anavan	41.00995	44.38531	23782	AM	Asia/Yerevan
616199	Spitak	40.83221	44.26731	15059	AM	Asia/Yerevan
616250	Sevan	40.5473	44.94171	17083	AM	Asia/Yerevan
616435	Masis	40.06542	44.41618	18911	AM	Asia/Yerevan
616530	Vanadzor	40.80456	44.4939	101098	AM	Asia/Yerevan
616599	Gavarr	40.35398	45.12386	21680	AM	Asia/Yerevan
616629	Hrazdan	40.49748	44.7662	40795	AM	Asia/Yerevan
616631	Armavir	40.15446	44.03815	25963	AM	Asia/Yerevan
616635	Gyumri	40.7942	43.84528	148381	AM	Asia/Yerevan
616877	Ashtarak	40.2991	44.36204	18779	AM	Asia/Yerevan
617026	Abovyan	40.27368	44.63348	35673	AM	Asia/Yerevan
145531	Saurimo	-9.66078	20.39155	40498	AO	Africa/Luanda
145724	Lucapa	-8.41915	20.74466	20115	AO	Africa/Luanda
876177	Luau	-10.70727	22.22466	18465	AO	Africa/Luanda
2236568	Uíge	-7.60874	15.06131	60008	AO	Africa/Luanda
2236967	Soio	-6.1349	12.36894	67491	AO	Africa/Luanda
2239001	N'zeto	-7.23116	12.8666	18352	AO	Africa/Luanda
2239076	N’dalatando	-9.29782	14.91162	383100	AO	Africa/Luanda
2239520	Mbanza Congo	-6.26703	14.2401	24220	AO	Africa/Luanda
2239862	Malanje	-9.54015	16.34096	87046	AO	Africa/Luanda
2240449	Luanda	-8.83682	13.23432	2776168	AO	Africa/Luanda
2242001	Caxito	-8.57848	13.66425	28224	AO	Africa/Luanda
2243271	Cabinda	-5.55	12.2	66020	AO	Africa/Luanda
3346015	Sumbe	-11.20605	13.84371	33277	AO	Africa/Luanda
3347019	Namibe	-15.19611	12.15222	80149	AO	Africa/Luanda
3347353	Menongue	-14.6585	17.69099	32203	AO	Africa/Luanda
3347719	Luena	-11.78333	19.91667	21115	AO	Africa/Luanda
3347762	Lubango	-14.91717	13.4925	102541	AO	Africa/Luanda
3347853	Longonjo	-12.90667	15.25333	24346	AO	Africa/Luanda
3347939	Lobito	-12.3644	13.53601	207932	AO	Africa/Luanda
3348078	Cuito	-12.38333	16.93333	113624	AO	Africa/Luanda
3348313	Huambo	-12.77611	15.73917	226145	AO	Africa/Luanda
3350246	Catumbela	-12.43002	13.54677	16977	AO	Africa/Luanda
3350372	Catabola	-12.15	17.28333	18855	AO	Africa/Luanda
3351014	Camacupa	-12.01667	17.48333	19150	AO	Africa/Luanda
3351500	Caála	-12.8525	15.56056	21205	AO	Africa/Luanda
3351663	Benguela	-12.57626	13.40547	151226	AO	Africa/Luanda
3427213	Zárate	-34.09814	-59.02858	88781	AR	America/Argentina/Buenos_Aires
3427327	Wanda	-25.96879	-54.56285	15529	AR	America/Argentina/Cordoba
3427387	Villa Ortúzar	-34.57973	-58.46829	22500	AR	America/Argentina/Buenos_Aires
3427388	Villa Ocampo	-28.48752	-59.35515	19101	AR	America/Argentina/Cordoba
3427408	Villa Lugano	-34.67907	-58.47263	114000	AR	America/Argentina/Buenos_Aires
3427428	Villaguay	-31.8653	-59.02689	32027	AR	America/Argentina/Cordoba
3427431	Villa Gesell	-37.26394	-56.97304	23257	AR	America/Argentina/Buenos_Aires
3427761	Tigre	-34.42603	-58.57962	31106	AR	America/Argentina/Buenos_Aires
3427833	Tandil	-37.32167	-59.13316	104325	AR	America/Argentina/Buenos_Aires
3428068	San Vicente	-26.61667	-54.13333	38247	AR	America/Argentina/Cordoba
3428071	Santo Tomé	-28.54939	-56.04077	22634	AR	America/Argentina/Cordoba
3428359	Santa Elena	-30.94432	-59.78832	18410	AR	America/Argentina/Cordoba
3428576	San Pedro	-33.67918	-59.66633	47452	AR	America/Argentina/Buenos_Aires
3428577	San Pedro	-26.62207	-54.10842	23736	AR	America/Argentina/Cordoba
3428708	San Luis del Palmar	-27.5079	-58.55454	15347	AR	America/Argentina/Cordoba
3428759	San Lorenzo	-28.13306	-58.76733	47626	AR	America/Argentina/Cordoba
3428975	San Javier	-30.57781	-59.9317	15606	AR	America/Argentina/Cordoba
3428992	San Isidro	-34.4721	-58.52708	45190	AR	America/Argentina/Buenos_Aires
3429403	Saladas	-28.25384	-58.62591	18349	AR	America/Argentina/Cordoba
3429576	Retiro	-34.58333	-58.38333	38635	AR	America/Argentina/Buenos_Aires
3429577	Resistencia	-27.46056	-58.98389	387158	AR	America/Argentina/Cordoba
3429594	Reconquista	-29.15	-59.65	90184	AR	America/Argentina/Cordoba
3429652	Quilmes	-34.72904	-58.26374	230000	AR	America/Argentina/Buenos_Aires
3429732	Puerto Rico	-26.79598	-55.02402	17491	AR	America/Argentina/Cordoba
3429777	Puerto Iguazú	-25.59912	-54.57355	32038	AR	America/Argentina/Cordoba
3429786	Puerto Esperanza	-26.02267	-54.61356	15579	AR	America/Argentina/Cordoba
3429790	Puerto Eldorado	-26.40843	-54.69463	54189	AR	America/Argentina/Cordoba
3429886	Posadas	-27.36708	-55.89608	323739	AR	America/Argentina/Cordoba
3429902	Pontevedra	-34.74785	-58.70072	33515	AR	America/Argentina/Buenos_Aires
3429949	Pirané	-25.73239	-59.10879	19124	AR	America/Argentina/Cordoba
3429980	Pilar	-34.45866	-58.9142	226517	AR	America/Argentina/Buenos_Aires
3430104	Paso de los Libres	-29.71251	-57.08771	43805	AR	America/Argentina/Cordoba
3430340	Oberá	-27.48706	-55.11994	56528	AR	America/Argentina/Cordoba
3430443	Necochea	-38.5545	-58.73961	80478	AR	America/Argentina/Buenos_Aires
3430545	Morón	-34.6509	-58.61956	319934	AR	America/Argentina/Buenos_Aires
3430598	Monte Caseros	-30.25359	-57.63626	24671	AR	America/Argentina/Cordoba
3430601	Montecarlo	-26.5662	-54.757	22229	AR	America/Argentina/Cordoba
3430708	Mercedes	-34.65145	-59.43068	52949	AR	America/Argentina/Buenos_Aires
3430709	Mercedes	-29.18416	-58.07519	30649	AR	America/Argentina/Cordoba
3430863	Mar del Plata	-38.00042	-57.5562	553935	AR	America/Argentina/Buenos_Aires
3430988	Luján	-34.57028	-59.105	81749	AR	America/Argentina/Buenos_Aires
3432043	La Plata	-34.92145	-57.95453	694167	AR	America/Argentina/Buenos_Aires
3432079	La Paz	-30.74179	-59.64517	24716	AR	America/Argentina/Cordoba
3433349	Jardín América	-27.04346	-55.22698	24905	AR	America/Argentina/Cordoba
3433658	Gualeguaychú	-33.00937	-58.51722	78676	AR	America/Argentina/Cordoba
3433663	Gualeguay	-33.14156	-59.30966	33120	AR	America/Argentina/Cordoba
3433715	Goya	-29.13995	-59.26343	70245	AR	America/Argentina/Cordoba
3433753	Gobernador Virasora	-28.05	-56.03333	28756	AR	America/Argentina/Cordoba
3433803	General José de San Martín	-26.53743	-59.34158	31758	AR	America/Argentina/Cordoba
3433836	Garupá	-27.48171	-55.82921	28814	AR	America/Argentina/Cordoba
3433899	Formosa	-26.18489	-58.17313	221383	AR	America/Argentina/Cordoba
3433901	Fontana	-27.41813	-59.02392	26745	AR	America/Argentina/Cordoba
3433956	Federal	-30.95465	-58.78326	16333	AR	America/Argentina/Cordoba
3434095	Esquina	-30.01476	-59.5289	26399	AR	America/Argentina/Cordoba
3434291	El Soberbio	-27.29847	-54.19877	19571	AR	America/Argentina/Cordoba
3435038	Dolores	-36.31321	-57.67918	25190	AR	America/Argentina/Buenos_Aires
3435103	Curuzú Cuatiá	-29.79171	-58.0546	36390	AR	America/Argentina/Cordoba
3435217	Corrientes	-27.46784	-58.8344	339067	AR	America/Argentina/Cordoba
3435261	Concordia	-31.39296	-58.02089	145210	AR	America/Argentina/Cordoba
3435264	Concepción del Uruguay	-32.48463	-58.23217	67895	AR	America/Argentina/Cordoba
3435356	Colegiales	-34.57365	-58.44924	57000	AR	America/Argentina/Buenos_Aires
3435486	Chajarí	-30.75048	-57.97962	30655	AR	America/Argentina/Cordoba
3435810	Campana	-34.16327	-58.95919	81612	AR	America/Argentina/Buenos_Aires
3435910	Buenos Aires	-34.61315	-58.37723	13076300	AR	America/Argentina/Buenos_Aires
3436003	Boedo	-34.63333	-58.41667	48231	AR	America/Argentina/Buenos_Aires
3436043	Berazategui	-34.76531	-58.21278	167498	AR	America/Argentina/Buenos_Aires
3436077	Belgrano	-34.5627	-58.45829	138942	AR	America/Argentina/Buenos_Aires
3436124	Barranqueras	-27.48132	-58.93925	50823	AR	America/Argentina/Cordoba
3436134	Barracas	-34.64966	-58.38341	77474	AR	America/Argentina/Buenos_Aires
3436199	Azul	-36.77698	-59.85854	53941	AR	America/Argentina/Buenos_Aires
3436230	Avellaneda	-29.11761	-59.65834	23077	AR	America/Argentina/Cordoba
3436287	Aristóbulo del Valle	-27.09625	-54.89626	20683	AR	America/Argentina/Cordoba
3832132	Zapala	-38.89916	-70.05442	31534	AR	America/Argentina/Salta
3832260	Yerba Buena	-26.81667	-65.31667	50783	AR	America/Argentina/Tucuman
3832647	Villa Regina	-39.1	-67.06667	31209	AR	America/Argentina/Salta
3832653	Villa Paula de Sarmiento	-31.4933	-68.53838	19092	AR	America/Argentina/San_Juan
3832662	Villa Nueva	-32.43293	-63.24763	16841	AR	America/Argentina/Cordoba
3832694	Villa María	-32.40751	-63.24016	92453	AR	America/Argentina/Cordoba
3832756	Villa Dolores	-31.94585	-65.18958	28009	AR	America/Argentina/Cordoba
3832778	Villa Constitución	-33.22778	-60.3297	44271	AR	America/Argentina/Cordoba
3832791	Villa Carlos Paz	-31.42414	-64.49778	69451	AR	America/Argentina/Cordoba
3832811	Villa Ángela	-27.57383	-60.71526	43511	AR	America/Argentina/Cordoba
3832815	Villa Allende	-31.29458	-64.29538	21683	AR	America/Argentina/Cordoba
3832899	Viedma	-40.81345	-62.99668	48940	AR	America/Argentina/Salta
3832934	Victoria	-32.61841	-60.15478	25139	AR	America/Argentina/Cordoba
3833027	Vera	-29.4593	-60.21261	19797	AR	America/Argentina/Cordoba
3833062	Venado Tuerto	-33.74556	-61.96885	72340	AR	America/Argentina/Cordoba
3833112	Veinticinco de Mayo	-35.4323	-60.17271	24668	AR	America/Argentina/Buenos_Aires
3833367	Ushuaia	-54.81084	-68.31591	58028	AR	America/Argentina/Ushuaia
3833412	Unquillo	-31.23073	-64.31615	15369	AR	America/Argentina/Cordoba
3833794	Tres Isletas	-26.34067	-60.43207	24747	AR	America/Argentina/Cordoba
3833859	Tres Arroyos	-38.37394	-60.27978	47136	AR	America/Argentina/Buenos_Aires
3833883	Trelew	-43.24895	-65.30505	93442	AR	America/Argentina/Catamarca
3834502	Termas de Río Hondo	-27.49362	-64.85972	27838	AR	America/Argentina/Cordoba
3834601	Tartagal	-22.51637	-63.80131	60819	AR	America/Argentina/Salta
3834813	Tafí Viejo	-26.73201	-65.25921	48459	AR	America/Argentina/Tucuman
3834971	Sunchales	-30.94404	-61.56148	18757	AR	America/Argentina/Cordoba
3835793	Santo Tomé	-31.66274	-60.7653	59072	AR	America/Argentina/Cordoba
3835869	Santiago del Estero	-27.79511	-64.26149	354692	AR	America/Argentina/Cordoba
3835994	Santa Rosa	-36.61667	-64.28333	111424	AR	America/Argentina/Salta
3836194	Santa Lucía	-31.53987	-68.49503	43565	AR	America/Argentina/San_Juan
3836277	Santa Fe	-31.64881	-60.70868	489505	AR	America/Argentina/Cordoba
3836564	San Salvador de Jujuy	-24.19457	-65.29712	305891	AR	America/Argentina/Jujuy
3836620	San Ramón de la Nueva Orán	-23.13705	-64.32426	74059	AR	America/Argentina/Salta
3836669	San Rafael	-34.61772	-68.33007	109163	AR	America/Argentina/Mendoza
3836772	San Pedro de Jujuy	-24.23127	-64.86614	58430	AR	America/Argentina/Jujuy
3836846	San Nicolás de los Arroyos	-33.33425	-60.2108	127742	AR	America/Argentina/Buenos_Aires
3836873	San Miguel de Tucumán	-26.82414	-65.2226	781023	AR	America/Argentina/Tucuman
3836951	San Martín de los Andes	-40.15789	-71.35337	23519	AR	America/Argentina/Salta
3836992	San Martín	-33.08103	-68.46814	82549	AR	America/Argentina/Mendoza
3837056	San Luis	-33.29501	-66.33563	183982	AR	America/Argentina/San_Luis
3837124	San Justo	-30.78913	-60.59189	21809	AR	America/Argentina/Cordoba
3837213	San Juan	-31.5375	-68.53639	447048	AR	America/Argentina/San_Juan
3837240	San José de Jáchal	-30.24057	-68.74693	21018	AR	America/Argentina/San_Juan
3837441	San Jorge	-31.89618	-61.85984	16873	AR	America/Argentina/Cordoba
3837675	San Francisco	-31.42797	-62.08266	59062	AR	America/Argentina/Cordoba
3837702	San Fernando del Valle de Catamarca	-28.46957	-65.78524	188812	AR	America/Argentina/Catamarca
3837980	San Antonio Oeste	-40.73193	-64.94769	16966	AR	America/Argentina/Salta
3838233	Salta	-24.7859	-65.41166	512686	AR	America/Argentina/Salta
3838506	Rufino	-34.26827	-62.71262	18361	AR	America/Argentina/Cordoba
3838583	Rosario	-32.94682	-60.63932	1173533	AR	America/Argentina/Cordoba
3838793	Río Tercero	-32.17301	-64.11405	53389	AR	America/Argentina/Cordoba
3838797	Río Segundo	-31.6526	-63.9099	18155	AR	America/Argentina/Cordoba
3838854	Río Grande	-53.78769	-67.70946	52681	AR	America/Argentina/Ushuaia
3838859	Río Gallegos	-51.62261	-69.21813	85700	AR	America/Argentina/Rio_Gallegos
3838874	Río Cuarto	-33.13067	-64.34992	153757	AR	America/Argentina/Cordoba
3838902	Río Ceballos	-31.16486	-64.32241	16632	AR	America/Argentina/Cordoba
3839307	Rawson	-43.30016	-65.10228	26335	AR	America/Argentina/Catamarca
3839479	Rafaela	-31.25033	-61.4867	88713	AR	America/Argentina/Cordoba
3839490	Quitilipi	-26.86913	-60.21683	32083	AR	America/Argentina/Cordoba
3839982	Punta Alta	-38.87588	-62.07359	57209	AR	America/Argentina/Buenos_Aires
3840092	Puerto Madryn	-42.7692	-65.03851	64555	AR	America/Argentina/Catamarca
3840300	Presidencia Roque Sáenz Peña	-26.78522	-60.43876	81879	AR	America/Argentina/Cordoba
3840860	Pocito	-31.68333	-68.58333	40969	AR	America/Argentina/San_Juan
3840885	Plottier	-38.96667	-68.23333	25186	AR	America/Argentina/Salta
3841490	Pergamino	-33.88995	-60.57357	87652	AR	America/Argentina/Buenos_Aires
3841500	Pérez	-32.99835	-60.76791	24436	AR	America/Argentina/Cordoba
3841956	Paraná	-31.73271	-60.52897	262295	AR	America/Argentina/Cordoba
3842190	Palpalá	-24.25647	-65.21163	48199	AR	America/Argentina/Jujuy
3842670	Olavarría	-36.89272	-60.32254	86320	AR	America/Argentina/Buenos_Aires
3842881	Nueve de Julio	-35.44437	-60.88313	34718	AR	America/Argentina/Buenos_Aires
3843123	Neuquén	-38.95161	-68.0591	242092	AR	America/Argentina/Salta
3843619	Morteros	-30.71164	-61.99862	15129	AR	America/Argentina/Cordoba
3843803	Monteros	-27.16741	-65.49832	23771	AR	America/Argentina/Tucuman
3844421	Mendoza	-32.89084	-68.82717	876884	AR	America/Argentina/Mendoza
3844899	Marcos Juárez	-32.6978	-62.10672	24226	AR	America/Argentina/Cordoba
3845330	Machagai	-26.92614	-60.04955	28070	AR	America/Argentina/Cordoba
3846864	Lincoln	-34.86649	-61.5302	41808	AR	America/Argentina/Buenos_Aires
3846915	Libertador General San Martín	-23.80644	-64.78757	49267	AR	America/Argentina/Jujuy
3848687	Las Breñas	-27.08966	-61.08161	26955	AR	America/Argentina/Cordoba
3848950	La Rioja	-29.41105	-66.85067	162620	AR	America/Argentina/La_Rioja
3851331	La Falda	-31.08841	-64.48987	15112	AR	America/Argentina/Cordoba
3852374	La Calera	-31.34377	-64.33529	24796	AR	America/Argentina/Cordoba
3852468	Laboulaye	-34.12662	-63.39119	19908	AR	America/Argentina/Cordoba
3853354	Junín	-34.58382	-60.94332	85007	AR	America/Argentina/Buenos_Aires
3853491	Joaquín V. González	-25.11364	-64.12628	19185	AR	America/Argentina/Salta
3853510	Jesús María	-30.98153	-64.09424	26825	AR	America/Argentina/Cordoba
3854895	Granadero Baigorria	-32.85683	-60.71754	32427	AR	America/Argentina/Cordoba
3854985	Gobernador Gálvez	-33.03016	-60.64045	74650	AR	America/Argentina/Cordoba
3855041	General Villegas	-35.03285	-63.01252	16270	AR	America/Argentina/Buenos_Aires
3855065	General Roca	-39.03333	-67.58333	73212	AR	America/Argentina/Salta
3855074	General Pinedo	-27.31667	-61.28333	15741	AR	America/Argentina/Cordoba
3855075	General Pico	-35.65662	-63.75682	57029	AR	America/Argentina/Salta
3855116	General Enrique Mosconi	-22.59588	-63.81255	19811	AR	America/Argentina/Salta
3855244	Gálvez	-32.02927	-61.22103	18374	AR	America/Argentina/Cordoba
3855554	Firmat	-33.45937	-61.4832	18294	AR	America/Argentina/Cordoba
3855666	Famaillá	-27.05413	-65.40329	30951	AR	America/Argentina/Tucuman
3855974	Esquel	-42.91147	-71.31947	28486	AR	America/Argentina/Catamarca
3856022	Esperanza	-31.4488	-60.93173	35885	AR	America/Argentina/Cordoba
3856231	Embarcación	-23.21003	-64.09965	23961	AR	America/Argentina/Salta
3856235	Embalse	-32.18	-64.41809	15900	AR	America/Argentina/Cordoba
3858765	El Bolsón	-41.96051	-71.53336	15537	AR	America/Argentina/Salta
3859384	Diamante	-32.06641	-60.63837	19545	AR	America/Argentina/Cordoba
3859512	Deán Funes	-30.42036	-64.34984	20164	AR	America/Argentina/Cordoba
3859552	Cutral-Có	-38.93424	-69.23052	47380	AR	America/Argentina/Salta
3859828	Cruz del Eje	-30.72644	-64.80387	28166	AR	America/Argentina/Cordoba
3859904	Crespo	-32.02873	-60.30658	18296	AR	America/Argentina/Cordoba
3859965	Cosquín	-31.24508	-64.46563	19070	AR	America/Argentina/Cordoba
3860164	Coronel Suárez	-37.45467	-61.93343	27000	AR	America/Argentina/Buenos_Aires
3860217	Coronda	-31.97263	-60.91983	16975	AR	America/Argentina/Cordoba
3860259	Córdoba	-31.4135	-64.18105	1428214	AR	America/Argentina/Cordoba
3860443	Comodoro Rivadavia	-45.86413	-67.49656	140850	AR	America/Argentina/Catamarca
3861056	Cipolletti	-38.93392	-67.99032	75078	AR	America/Argentina/Salta
3861061	Cinco Saltos	-38.82225	-68.06293	19819	AR	America/Argentina/Salta
3861344	Chivilcoy	-34.89566	-60.01667	54514	AR	America/Argentina/Buenos_Aires
3861416	Chimbas	-31.48333	-68.53333	73829	AR	America/Argentina/San_Juan
3861445	Chilecito	-29.16195	-67.4974	42248	AR	America/Argentina/La_Rioja
3861678	Charata	-27.21438	-61.18795	27813	AR	America/Argentina/Cordoba
3861953	Chacabuco	-34.64167	-60.47389	34587	AR	America/Argentina/Buenos_Aires
3862144	Centenario	-38.82955	-68.1318	28956	AR	America/Argentina/Salta
3862240	Caucete	-31.65179	-68.28105	33609	AR	America/Argentina/San_Juan
3862254	Catriel	-37.87907	-67.7956	15169	AR	America/Argentina/Salta
3862320	Castelli	-25.94679	-60.61947	36588	AR	America/Argentina/Cordoba
3862351	Casilda	-33.04417	-61.16806	32002	AR	America/Argentina/Cordoba
3862655	Carcarañá	-32.85679	-61.15331	15619	AR	America/Argentina/Cordoba
3862738	Capitán Bermúdez	-32.82262	-60.71852	27060	AR	America/Argentina/Cordoba
3862981	Cañada de Gómez	-32.81636	-61.39493	36000	AR	America/Argentina/Cordoba
3863379	Caleta Olivia	-46.43929	-67.52814	36077	AR	America/Argentina/Rio_Gallegos
3864331	Bell Ville	-32.62591	-62.68873	35105	AR	America/Argentina/Cordoba
3864375	Bella Vista	-27.03424	-65.30196	15126	AR	America/Argentina/Tucuman
3865086	Bahía Blanca	-38.71959	-62.27243	276546	AR	America/Argentina/Buenos_Aires
3865385	Arroyo Seco	-33.15489	-60.50863	20008	AR	America/Argentina/Cordoba
3865424	Arroyito	-31.42022	-63.05002	19577	AR	America/Argentina/Cordoba
3865840	Añatuya	-28.46064	-62.83472	20261	AR	America/Argentina/Cordoba
3866163	Alta Gracia	-31.65292	-64.42826	40384	AR	America/Argentina/Cordoba
3866242	Allen	-38.97736	-67.82714	26083	AR	America/Argentina/Salta
3866367	Alderetes	-26.81667	-65.13333	38466	AR	America/Argentina/Tucuman
3866425	Albardón	-31.43722	-68.52556	20413	AR	America/Argentina/San_Juan
3866496	Aguilares	-27.4338	-65.61427	32494	AR	America/Argentina/Tucuman
6693228	Balvanera	-34.61032	-58.39766	152198	AR	America/Argentina/Buenos_Aires
6693230	Villa Santa Rita	-34.61082	-58.481	34000	AR	America/Argentina/Buenos_Aires
7116866	Villa Mercedes	-33.67571	-65.45783	96781	AR	America/Argentina/San_Luis
7647007	San Carlos de Bariloche	-41.14557	-71.30822	95394	AR	America/Argentina/Salta
10172104	Adrogué	-34.80041	-58.38384	28265	AR	America/Argentina/Buenos_Aires
5881576	Pago Pago	-14.27806	-170.7025	11500	AS	Pacific/Pago_Pago
2761164	Wilten	47.25829	11.38808	18142	AT	Europe/Vienna
2761353	Wiener Neustadt	47.80485	16.23196	44820	AT	Europe/Vienna
2761369	Vienna	48.20849	16.37208	1691468	AT	Europe/Vienna
2761436	Wetzelsdorf	47.05293	15.39923	15687	AT	Europe/Vienna
2761524	Wels	48.16667	14.03333	16857	AT	Europe/Vienna
2761669	Weinzierl bei Krems	48.4	15.6	24092	AT	Europe/Vienna
2762372	Villach	46.61028	13.85583	58882	AT	Europe/Vienna
2763810	Telfs	47.30707	11.06817	15229	AT	Europe/Vienna
2764178	Straßgang	47.03333	15.4	16268	AT	Europe/Vienna
2764279	Stockerau	48.38333	16.21667	16292	AT	Europe/Vienna
2764359	Steyr	48.04274	14.42127	38331	AT	Europe/Vienna
2765028	Simmering	48.18333	16.43333	101420	AT	Europe/Vienna
2766429	Sankt Pölten	48.2	15.63333	21911	AT	Europe/Vienna
2766446	Sankt Peter	47.05	15.46667	15187	AT	Europe/Vienna
2766447	Sankt Peter	46.62978	14.34016	20320	AT	Europe/Vienna
2766522	Sankt Martin	46.61667	14.28333	20000	AT	Europe/Vienna
2766824	Salzburg	47.79941	13.04399	153377	AT	Europe/Vienna
2768442	Pradl	47.26539	11.4152	32588	AT	Europe/Vienna
2769110	Perchtoldsdorf	48.11935	16.26607	15047	AT	Europe/Vienna
2769359	Ottakring	48.21667	16.3	104627	AT	Europe/Vienna
2771335	Mödling	48.08605	16.28921	20555	AT	Europe/Vienna
2771706	Meidling	48.16667	16.33333	97624	AT	Europe/Vienna
2772173	Lustenau	47.42642	9.65851	22821	AT	Europe/Vienna
2772400	Linz	48.30639	14.28611	204846	AT	Europe/Vienna
2773913	Klosterneuburg	48.30521	16.32522	15614	AT	Europe/Vienna
2774326	Klagenfurt am Wörthersee	46.62472	14.30528	90610	AT	Europe/Vienna
2775220	Innsbruck	47.26266	11.39454	132493	AT	Europe/Vienna
2775260	Innere Stadt	48.20906	16.37135	16450	AT	Europe/Vienna
2775479	Hötting	47.26815	11.36868	35043	AT	Europe/Vienna
2775742	Hohenems	47.36667	9.68306	16317	AT	Europe/Vienna
2776421	Hietzing	48.18623	16.2965	54265	AT	Europe/Vienna
2776488	Hernals	48.23333	16.26667	57546	AT	Europe/Vienna
2778067	Graz	47.06667	15.45	222326	AT	Europe/Vienna
2779469	Floridsdorf	48.25	16.4	162779	AT	Europe/Vienna
2779674	Feldkirch	47.23306	9.6	33420	AT	Europe/Vienna
2780361	Eggenberg	47.07	15.39871	20511	AT	Europe/Vienna
2780741	Dornbirn	47.41427	9.74195	49278	AT	Europe/Vienna
2781503	Bregenz	47.50311	9.7471	29471	AT	Europe/Vienna
2782067	Baden	48.00543	16.23264	26286	AT	Europe/Vienna
2782555	Amstetten	48.1229	14.87206	15559	AT	Europe/Vienna
8063098	Favoriten	48.16116	16.38233	201882	AT	Europe/Vienna
11903636	Donaustadt	48.2333	16.46002	187007	AT	Europe/Vienna
11903637	Jakomini	47.05441	15.44984	32912	AT	Europe/Vienna
11903638	Lend	47.08256	15.41589	31147	AT	Europe/Vienna
11903639	Geidorf	47.08393	15.444	24767	AT	Europe/Vienna
11903640	Sankt Leonhard	47.06924	15.45784	15853	AT	Europe/Vienna
11903641	Andritz	47.11387	15.42348	19020	AT	Europe/Vienna
11903642	Gries	47.06236	15.42421	29363	AT	Europe/Vienna
2058430	Whyalla	-33.03268	137.56483	19645	AU	Australia/Adelaide
2062338	Rockingham	-32.27682	115.72978	108022	AU	Australia/Perth
2062944	Prospect	-34.88241	138.5933	20217	AU	Australia/Adelaide
2063042	Port Hedland	-20.31215	118.61059	15044	AU	Australia/Perth
2063523	Perth	-31.95224	115.8614	1896548	AU	Australia/Perth
2065176	Murray Bridge	-35.11986	139.27345	19577	AU	Australia/Adelaide
2065594	Mount Isa	-20.72523	139.49727	22785	AU	Australia/Brisbane
2065740	Morphett Vale	-35.13333	138.51667	22602	AU	Australia/Adelaide
2067119	Mandurah	-32.5269	115.7217	83294	AU	Australia/Perth
2068079	Kwinana	-32.23013	115.78128	30433	AU	Australia/Perth
2068823	Kalgoorlie	-30.74614	121.4742	31107	AU	Australia/Perth
2070571	Gosnells	-32.081	116.0054	17277	AU	Australia/Perth
2070998	Geraldton	-28.77897	114.61459	26872	AU	Australia/Perth
2071059	Gawler	-34.60251	138.74902	20006	AU	Australia/Adelaide
2071223	Fremantle	-32.05632	115.74557	24835	AU	Australia/Perth
2073124	Darwin	-12.46113	130.84185	129062	AU	Australia/Darwin
2075265	Busselton	-33.65249	115.3455	21898	AU	Australia/Perth
2075432	Bunbury	-33.32711	115.64137	68248	AU	Australia/Perth
2077579	Armadale	-32.14607	116.0093	62296	AU	Australia/Perth
2077895	Alice Springs	-23.69748	133.88362	25186	AU	Australia/Darwin
2077963	Albany	-35.02692	117.88369	33650	AU	Australia/Perth
2078025	Adelaide	-34.92866	138.59863	1225235	AU	Australia/Adelaide
2143069	Woodridge	-27.63333	153.1	20650	AU	Australia/Brisbane
2143285	Wodonga	-36.12179	146.88809	31605	AU	Australia/Melbourne
2143887	Wheelers Hill	-37.9	145.18333	19753	AU	Australia/Melbourne
2143973	Westmead	-33.80383	150.98768	16309	AU	Australia/Sydney
2144095	Werribee	-37.9	144.66667	37737	AU	Australia/Melbourne
2144528	Warrnambool	-38.38176	142.48799	33982	AU	Australia/Melbourne
2144728	Wantirna South	-37.88333	145.21667	17477	AU	Australia/Melbourne
2144764	Wangaratta	-36.35846	146.32056	16845	AU	Australia/Melbourne
2145092	Wahroonga	-33.71816	151.11561	17371	AU	Australia/Sydney
2145110	Wagga Wagga	-35.12577	147.35375	46913	AU	Australia/Sydney
2146108	Traralgon	-38.19528	146.5415	21960	AU	Australia/Melbourne
2146142	Townsville	-19.26639	146.80569	196219	AU	Australia/Brisbane
2146268	Toowoomba	-27.56056	151.95386	131258	AU	Australia/Brisbane
2146793	Thornbury	-37.75819	145.00583	17434	AU	Australia/Melbourne
2146827	Thomastown	-37.68333	145.01667	20331	AU	Australia/Melbourne
2147357	Tarneit	-37.83634	144.65952	21690	AU	Australia/Melbourne
2147381	Taree	-31.91099	152.45387	16621	AU	Australia/Sydney
2147497	Tamworth	-31.09048	150.92905	47597	AU	Australia/Sydney
2147714	Sydney	-33.86785	151.20732	4627345	AU	Australia/Sydney
2147849	Surfers Paradise	-28.00274	153.42999	18501	AU	Australia/Brisbane
2147892	Sunnybank	-27.58003	153.06064	16442	AU	Australia/Brisbane
2147914	Sunbury	-37.57742	144.72607	29925	AU	Australia/Melbourne
2148088	Strathfield	-33.88096	151.07986	25813	AU	Australia/Sydney
2148398	Port Stephens	-32.73705	152.04877	27531	AU	Australia/Sydney
2148591	Springvale	-37.94853	145.15274	19771	AU	Australia/Melbourne
2148928	Southport	-27.96724	153.39796	28315	AU	Australia/Brisbane
2148997	South Grafton	-29.7076	152.92627	16399	AU	Australia/Sydney
2149645	Shepparton	-36.38047	145.39867	38773	AU	Australia/Melbourne
2149975	Seaford	-38.1	145.13333	16033	AU	Australia/Melbourne
2150660	Saint Kilda	-37.8676	144.98099	17795	AU	Australia/Melbourne
2150717	Saint Albans	-37.73333	144.8	35091	AU	Australia/Melbourne
2150894	Rowville	-37.93333	145.23333	34145	AU	Australia/Melbourne
2151437	Rockhampton	-23.38032	150.50595	61724	AU	Australia/Brisbane
2151649	Richmond	-37.81819	145.00176	26121	AU	Australia/Melbourne
2151716	Reservoir	-37.71667	145.0	47637	AU	Australia/Melbourne
2152286	Queanbeyan	-35.35493	149.232	40661	AU	Australia/Sydney
2152329	Quakers Hill	-33.73333	150.88333	25017	AU	Australia/Sydney
2152558	Preston	-37.75	145.01667	29925	AU	Australia/Melbourne
2152659	Port Macquarie	-31.43084	152.90894	41491	AU	Australia/Sydney
2152819	Point Cook	-37.91482	144.75088	32413	AU	Australia/Melbourne
2153951	Pakenham South	-38.13333	145.51667	32911	AU	Australia/Melbourne
2154219	Orange	-33.28397	149.10018	39329	AU	Australia/Sydney
2154787	Nowra	-34.88422	150.60036	34479	AU	Australia/Sydney
2155001	Northcote	-37.76667	145.0	22920	AU	Australia/Melbourne
2155204	Noble Park	-37.96667	145.16667	28377	AU	Australia/Melbourne
2155472	Newcastle	-32.92953	151.7801	308308	AU	Australia/Sydney
2155542	Nerang	-27.98941	153.33633	16256	AU	Australia/Brisbane
2155718	Narre Warren	-38.03333	145.3	25882	AU	Australia/Melbourne
2155787	Narangba	-27.20338	152.95923	16223	AU	Australia/Brisbane
2156340	Mulgrave	-37.92845	145.17708	17647	AU	Australia/Melbourne
2156492	Mount Waverley	-37.87709	145.12939	33611	AU	Australia/Melbourne
2156578	Mount Martha	-38.26667	145.01667	17087	AU	Australia/Melbourne
2156643	Mount Gambier	-37.8318	140.77919	23209	AU	Australia/Adelaide
2156663	Mount Eliza	-38.18333	145.08333	17248	AU	Australia/Melbourne
2156813	Mosman	-33.83902	151.23956	26236	AU	Australia/Sydney
2156878	Mornington	-38.21792	145.03876	22421	AU	Australia/Melbourne
2156934	Morayfield	-27.10876	152.94907	18020	AU	Australia/Brisbane
2157343	Moe	-38.17828	146.26099	15582	AU	Australia/Melbourne
2157635	Mill Park	-37.66667	145.06667	30517	AU	Australia/Melbourne
2157698	Mildura	-34.18551	142.16251	30016	AU	Australia/Melbourne
2158151	Melton	-37.68339	144.58543	35490	AU	Australia/Melbourne
2158177	Melbourne	-37.814	144.96332	4246375	AU	Australia/Melbourne
2158562	Maryborough	-25.54073	152.70493	21501	AU	Australia/Brisbane
2158626	Marrickville	-33.90741	151.15546	23161	AU	Australia/Sydney
2158651	Maroubra	-33.95	151.23333	26538	AU	Australia/Sydney
2159045	Maitland	-32.73308	151.5574	67132	AU	Australia/Sydney
2159220	Mackay	-21.15345	149.16554	74219	AU	Australia/Brisbane
2159851	Liverpool	-33.91938	150.92588	21317	AU	Australia/Sydney
2160063	Lismore	-28.81354	153.2773	30086	AU	Australia/Sydney
2160188	Lilydale	-37.75	145.35	15649	AU	Australia/Melbourne
2160517	Launceston	-41.43876	147.13467	106153	AU	Australia/Hobart
2160560	Lara	-38.02388	144.40617	15520	AU	Australia/Melbourne
2160582	Langwarrin	-38.16667	145.16667	21371	AU	Australia/Melbourne
2160706	Lalor	-37.66667	145.01667	19873	AU	Australia/Melbourne
2161532	Keysborough	-37.99116	145.17385	22700	AU	Australia/Melbourne
2161540	Kew	-37.80639	145.03086	23876	AU	Australia/Melbourne
2161776	Katoomba	-33.71977	150.30739	18593	AU	Australia/Sydney
2163137	Hornsby	-33.70244	151.09931	19863	AU	Australia/Sydney
2163355	Hobart	-42.87936	147.32941	216656	AU	Australia/Hobart
2163776	Hawthorn South	-37.8329	145.0367	21177	AU	Australia/Melbourne
2163782	Hawthorn	-37.81992	145.0358	21177	AU	Australia/Melbourne
2163990	Hampton Park	-38.03333	145.25	23767	AU	Australia/Melbourne
2164422	Griffith	-34.28853	146.05093	15455	AU	Australia/Sydney
2164515	Greensborough	-37.70462	145.10302	20214	AU	Australia/Melbourne
2164691	Granville	-33.8406	151.00748	22889	AU	Australia/Sydney
2164837	Goulburn	-34.75155	149.72086	20940	AU	Australia/Sydney
2165087	Gold Coast	-28.00029	153.43088	591473	AU	Australia/Brisbane
2165200	Glenroy	-37.7	144.93333	19644	AU	Australia/Melbourne
2165329	Glenferrie	-37.83333	145.05	21177	AU	Australia/Melbourne
2165478	Gladstone	-23.84852	151.25775	30489	AU	Australia/Brisbane
2165798	Geelong	-38.14711	144.36069	226034	AU	Australia/Melbourne
2166143	Frankston East	-38.13333	145.13333	34457	AU	Australia/Melbourne
2166144	Frankston	-38.14458	145.12291	34457	AU	Australia/Melbourne
2166309	Forster	-32.18136	152.51715	17591	AU	Australia/Sydney
2166952	Fairfield	-33.86667	150.95	18081	AU	Australia/Sydney
2167208	Essendon	-37.74981	144.9109	18852	AU	Australia/Melbourne
2167279	Epping	-37.65	145.03333	32200	AU	Australia/Melbourne
2167280	Epping	-33.77271	151.08184	18969	AU	Australia/Sydney
2167312	Engadine	-34.06564	151.01266	17937	AU	Australia/Sydney
2167445	Eltham	-37.73333	145.15	18162	AU	Australia/Melbourne
2167651	Eight Mile Plains	-27.58333	153.1	15322	AU	Australia/Brisbane
2167817	Echuca	-36.14057	144.75185	19457	AU	Australia/Melbourne
2167840	Eastwood	-33.79176	151.08057	17865	AU	Australia/Sydney
2167949	Earlwood	-33.9209	151.12506	16564	AU	Australia/Sydney
2168305	Dubbo	-32.24295	148.60484	32327	AU	Australia/Sydney
2168605	Doncaster East	-37.78761	145.14888	27047	AU	Australia/Melbourne
2168607	Doncaster	-37.78828	145.12373	18359	AU	Australia/Melbourne
2168943	Devonport	-41.17695	146.35152	19317	AU	Australia/Hobart
2169145	Deer Park	-37.76722	144.76657	16204	AU	Australia/Melbourne
2169220	Deception Bay	-27.19354	153.02631	16090	AU	Australia/Brisbane
2169460	Dandenong	-37.98333	145.2	24919	AU	Australia/Melbourne
2169867	Croydon	-37.8	145.28333	26946	AU	Australia/Melbourne
2169956	Cronulla	-34.06251	151.14961	16754	AU	Australia/Sydney
2170079	Cranbourne	-38.11342	145.28326	18622	AU	Australia/Melbourne
2170089	Craigieburn	-37.6	144.95	19728	AU	Australia/Melbourne
2171085	Coffs Harbour	-30.29626	153.11351	26353	AU	Australia/Sydney
2171168	Coburg	-37.75	144.96667	24977	AU	Australia/Melbourne
2171400	Clayton	-37.91667	145.11667	15543	AU	Australia/Melbourne
2171507	Wollongong	-34.424	150.89345	292190	AU	Australia/Sydney
2171845	Cessnock	-32.83211	151.35623	16393	AU	Australia/Sydney
2172111	Castle Hill	-33.73333	151.0	35389	AU	Australia/Sydney
2172191	Carrum Downs	-38.09968	145.17248	17213	AU	Australia/Melbourne
2172264	Carnegie	-37.89359	145.05534	16299	AU	Australia/Melbourne
2172303	Carlingford	-33.78269	151.04888	21364	AU	Australia/Sydney
2172311	Caringbah	-34.03534	151.12468	21283	AU	Australia/Sydney
2172517	Canberra	-35.28346	149.12807	367752	AU	Australia/Sydney
2172686	Camberwell	-37.84205	145.0694	19637	AU	Australia/Melbourne
2172710	Caloundra	-26.80346	153.12195	38706	AU	Australia/Brisbane
2172797	Cairns	-16.92366	145.76613	153075	AU	Australia/Brisbane
2172832	Caboolture	-27.08465	152.9511	21478	AU	Australia/Brisbane
2172995	Burwood	-33.88333	151.1	16030	AU	Australia/Sydney
2173125	Burnie	-41.05584	145.90375	19972	AU	Australia/Hobart
2173323	Bundaberg	-24.86621	152.3479	70826	AU	Australia/Brisbane
2173605	Buderim	-26.68443	153.05705	15228	AU	Australia/Brisbane
2173741	Brunswick	-37.76667	144.96667	19867	AU	Australia/Melbourne
2173911	Broken Hill	-31.9652	141.4512	18430	AU	Australia/Broken_Hill
2174003	Brisbane	-27.46794	153.02809	2189878	AU	Australia/Brisbane
2174039	Brighton	-37.90561	145.00279	21257	AU	Australia/Melbourne
2174580	Boronia	-37.86667	145.28333	20825	AU	Australia/Melbourne
2175411	Blacktown	-33.76667	150.91667	39000	AU	Australia/Sydney
2176031	Berwick	-38.03333	145.35	44779	AU	Australia/Melbourne
2176187	Bendigo	-36.75818	144.28024	100617	AU	Australia/Melbourne
2176592	Baulkham Hills	-33.75881	150.99292	33945	AU	Australia/Sydney
2176632	Bathurst	-33.41665	149.5806	33110	AU	Australia/Sydney
2176934	Banora Point	-28.21298	153.53634	27368	AU	Australia/Sydney
2176947	Bankstown	-33.91667	151.03333	30572	AU	Australia/Sydney
2177091	Ballarat	-37.56622	143.84957	97937	AU	Australia/Melbourne
2177513	Auburn	-33.85	151.03333	33122	AU	Australia/Sydney
2177565	Ashfield	-33.88834	151.12274	22000	AU	Australia/Sydney
2177671	Armidale	-30.50123	151.66553	22673	AU	Australia/Sydney
2178174	Albury	-36.07482	146.92401	45627	AU	Australia/Sydney
2207259	South Brisbane	-27.48034	153.02049	60000	AU	Australia/Brisbane
2207618	Cheltenham	-37.96944	145.04806	20292	AU	Australia/Melbourne
2208285	Randwick	-33.91439	151.24895	25819	AU	Australia/Sydney
2208305	Dee Why	-33.7511	151.28886	17463	AU	Australia/Sydney
2208313	Umina	-33.52314	151.31325	16059	AU	Australia/Sydney
6301965	Palmerston	-12.48602	130.9833	25000	AU	Australia/Darwin
6354957	Hervey Bay	-25.28762	152.76936	52230	AU	Australia/Brisbane
6943558	Bracken Ridge	-27.3171	153.03097	15355	AU	Australia/Brisbane
7281782	North Ryde	-33.79677	151.12436	17208	AU	Australia/Sydney
7281807	Hoppers Crossing	-37.88264	144.7003	38108	AU	Australia/Melbourne
7281838	Logan City	-27.63917	153.10944	282673	AU	Australia/Brisbane
7281839	Carindale	-27.50578	153.10236	15135	AU	Australia/Brisbane
7281840	Parramatta	-33.8178	151.00348	18448	AU	Australia/Sydney
7281850	Ferntree Gully	-37.88461	145.29539	24724	AU	Australia/Melbourne
7302628	Adelaide Hills	-34.91119	138.70735	60394	AU	Australia/Adelaide
7302631	Canning Vale	-32.05799	115.91814	23289	AU	Australia/Perth
7302642	Glenmore Park	-33.79068	150.6693	19200	AU	Australia/Sydney
7932612	Glen Iris	-37.85995	145.05489	23270	AU	Australia/Melbourne
7932629	Balwyn North	-37.79086	145.09386	19968	AU	Australia/Melbourne
7932638	Malvern East	-37.87397	145.04253	19593	AU	Australia/Melbourne
7932646	Brighton East	-37.90232	145.01734	15167	AU	Australia/Melbourne
7932654	Booval	-27.61328	152.78944	20540	AU	Australia/Brisbane
8015209	St Albans	-37.74496	144.80049	33511	AU	Australia/Melbourne
8347325	Endeavour Hills	-37.97695	145.25866	25000	AU	Australia/Melbourne
8347736	Kellyville	-33.71028	150.95095	27971	AU	Australia/Sydney
8347847	Taylors Lakes	-37.69863	144.78631	16095	AU	Australia/Melbourne
8347871	Cherrybrook	-33.72197	151.04607	18778	AU	Australia/Sydney
8347896	Roxburgh Park	-37.62581	144.92555	19235	AU	Australia/Melbourne
8347914	Prestons	-33.94185	150.8717	15313	AU	Australia/Sydney
8348078	Wyndham Vale	-37.89138	144.62368	17304	AU	Australia/Melbourne
8348081	Ballajura	-31.84062	115.89549	18952	AU	Australia/Perth
8348101	Willetton	-32.05251	115.88782	17243	AU	Australia/Perth
8348460	Cabramatta	-33.89743	150.93446	21783	AU	Australia/Sydney
8348466	Campsie	-33.9125	151.10279	24541	AU	Australia/Sydney
8348582	Greystanes	-33.82346	150.94607	21703	AU	Australia/Sydney
8348768	Yagoona	-33.9049	151.01996	16003	AU	Australia/Sydney
8348824	Highton	-38.17058	144.3114	17793	AU	Australia/Melbourne
8349003	Paralowie	-34.75705	138.60819	15872	AU	Australia/Adelaide
8349051	Dianella	-31.88822	115.87186	22521	AU	Australia/Perth
8349052	Duncraig	-31.83291	115.7759	15026	AU	Australia/Perth
8349108	Thornlie	-32.06003	115.955	22265	AU	Australia/Perth
8349222	Punchbowl	-33.92893	151.05111	20236	AU	Australia/Sydney
8349238	Parafield Gardens	-34.78254	138.61077	15317	AU	Australia/Adelaide
8349243	Hillside	-37.69047	144.74172	16326	AU	Australia/Melbourne
8349321	St Clair	-33.79728	150.7847	19837	AU	Australia/Sydney
8349354	Kirwan	-19.30323	146.72531	21416	AU	Australia/Brisbane
8349381	Bundoora	-37.69825	145.05967	25709	AU	Australia/Melbourne
9957340	Forest Lake	-27.62563	152.96883	22426	AU	Australia/Brisbane
9957350	Sunnybank Hills	-27.61025	153.05388	16830	AU	Australia/Brisbane
9972518	Narre Warren South	-38.04369	145.2923	28594	AU	Australia/Melbourne
9972522	Dandenong North	-37.96649	145.2081	21910	AU	Australia/Melbourne
9972527	Frankston South	-38.16604	145.13643	17360	AU	Australia/Melbourne
9972578	Sunshine West	-37.79117	144.81637	16743	AU	Australia/Melbourne
9972579	Altona Meadows	-37.88413	144.78367	18746	AU	Australia/Melbourne
9972762	Hurstville	-33.9677	151.10149	29822	AU	Australia/Sydney
9972964	West Pennant Hills	-33.7457	151.04764	15967	AU	Australia/Sydney
3577072	Tanki Leendert	12.53914	-70.02004	21500	AW	America/Aruba
3577089	San Nicolas	12.43624	-69.90713	15200	AW	America/Aruba
3577154	Oranjestad	12.52398	-70.02703	29998	AW	America/Aruba
3041732	Mariehamn	60.09726	19.93481	10682	AX	Europe/Mariehamn
146970	Xankandi	39.8177	46.7528	53100	AZ	Asia/Baku
147059	Əhmədbəyli	39.88074	48.39158	17242	AZ	Asia/Baku
147105	Shushi	39.76006	46.74989	18662	AZ	Asia/Baku
147271	Salyan	39.59621	48.98479	36555	AZ	Asia/Baku
147288	Saatlı	39.93214	48.36892	87000	AZ	Asia/Baku
147425	Neftçala	39.3768	49.247	18661	AZ	Asia/Baku
147429	Nakhchivan	39.20889	45.41222	64754	AZ	Asia/Baku
147622	Lankaran	38.75428	48.85062	240300	AZ	Asia/Baku
147982	Imishli	39.87095	48.05995	34178	AZ	Asia/Baku
148106	Fizuli	39.60094	47.14529	26765	AZ	Asia/Baku
148290	Jalilabad	39.20963	48.49186	36259	AZ	Asia/Baku
148340	Pushkino	39.45833	48.545	18182	AZ	Asia/Baku
148354	Beylagan	39.77556	47.61861	15599	AZ	Asia/Baku
148445	Astara	38.45598	48.87498	15190	AZ	Asia/Baku
148565	Şirvan	39.93778	48.929	70220	AZ	Asia/Baku
148619	Ağdam	39.99096	46.92736	39451	AZ	Asia/Baku
584596	Zaqatala	41.6316	46.64479	18277	AZ	Asia/Baku
584614	Zabrat	40.47746	49.94174	21396	AZ	Asia/Baku
584649	Yevlakh	40.61832	47.15014	59036	AZ	Asia/Baku
584716	Yelenendorf	40.58584	46.3189	17816	AZ	Asia/Baku
584717	Xaçmaz	41.46426	48.80565	37175	AZ	Asia/Baku
584791	Ujar	40.51902	47.65423	15741	AZ	Asia/Baku
584871	Terter	40.34201	46.93161	18185	AZ	Asia/Baku
584923	Sumqayıt	40.58972	49.66861	265150	AZ	Asia/Baku
585103	Qaraçuxur	40.39667	49.97361	72989	AZ	Asia/Baku
585152	Shamkhor	40.82975	46.0178	35421	AZ	Asia/Baku
585156	Shamakhi	40.63141	48.64137	29403	AZ	Asia/Baku
585170	Sheki	41.19194	47.17056	63000	AZ	Asia/Baku
585184	Sabunçu	40.4425	49.94806	20996	AZ	Asia/Baku
585187	Sabirabad	40.00869	48.47701	28075	AZ	Asia/Baku
585220	Qusar	41.4275	48.4302	16022	AZ	Asia/Baku
585221	Quba	41.36108	48.51341	22405	AZ	Asia/Baku
585225	Hacıqabul	40.03874	48.94286	23102	AZ	Asia/Baku
585226	Qazax	41.09246	45.36561	18903	AZ	Asia/Baku
585379	Hacı Zeynalabdin	40.62333	49.55861	19019	AZ	Asia/Baku
585514	Mingelchaur	40.76395	47.05953	95453	AZ	Asia/Baku
585557	Maştağa	40.52983	50.00616	40092	AZ	Asia/Baku
585568	Mardakan	40.49182	50.14292	15267	AZ	Asia/Baku
585630	Lökbatan	40.3256	49.73376	30694	AZ	Asia/Baku
585763	Kyurdarmir	40.34532	48.15085	19088	AZ	Asia/Baku
585915	Khirdalan	40.44808	49.75502	37949	AZ	Asia/Baku
586340	Yeni Suraxanı	40.43026	50.03598	16127	AZ	Asia/Baku
586427	Geoktschai	40.65055	47.74219	35348	AZ	Asia/Baku
586429	Hövsan	40.37444	50.08528	36293	AZ	Asia/Baku
586523	Ganja	40.68278	46.36056	313300	AZ	Asia/Baku
586763	Divichibazar	41.20117	48.98712	23248	AZ	Asia/Baku
586925	Buzovna	40.51903	50.11438	24795	AZ	Asia/Baku
586968	Biny Selo	40.45076	50.08686	24596	AZ	Asia/Baku
587057	Barda	40.37577	47.12619	37372	AZ	Asia/Baku
587078	Bilajari	40.4444	49.80566	42194	AZ	Asia/Baku
587084	Baku	40.37767	49.89201	1116513	AZ	Asia/Baku
587261	Amirdzhan	40.42639	49.98361	26798	AZ	Asia/Baku
587361	Aghsu	40.57028	48.40087	17209	AZ	Asia/Baku
587378	Ağdaş	40.64699	47.4738	23528	AZ	Asia/Baku
587384	Agdzhabedy	40.05015	47.45937	34989	AZ	Asia/Baku
824003	Bakıxanov	40.41894	49.96693	66686	AZ	Asia/Baku
3186573	Zenica	44.20169	17.90397	164423	BA	Europe/Sarajevo
3187609	Visoko	43.98889	18.17806	17890	BA	Europe/Sarajevo
3188225	Velika Kladuša	45.18497	15.80579	19330	BA	Europe/Sarajevo
3188582	Tuzla	44.53842	18.66709	142486	BA	Europe/Sarajevo
3188893	Trebinje	42.71197	18.34362	33178	BA	Europe/Sarajevo
3188924	Travnik	44.22637	17.66583	31127	BA	Europe/Sarajevo
3191281	Sarajevo	43.84864	18.35644	696731	BA	Europe/Sarajevo
3192409	Prijedor	44.97991	16.71401	36347	BA	Europe/Sarajevo
3194828	Mostar	43.34333	17.80806	104518	BA	Europe/Sarajevo
3199744	Gradačac	44.87851	18.42764	15659	BA	Europe/Sarajevo
3199779	Gračanica	44.70307	18.3101	15758	BA	Europe/Sarajevo
3200396	Goražde	43.66795	18.97564	17650	BA	Europe/Sarajevo
3201984	Doboj	44.73179	18.08698	27235	BA	Europe/Sarajevo
3202822	Cazin	44.96694	15.94306	21741	BA	Europe/Sarajevo
3203099	Bugojno	44.05722	17.45083	41378	BA	Europe/Sarajevo
3203521	Brčko	44.86995	18.81012	38968	BA	Europe/Sarajevo
3203653	Bosanska Krupa	44.8825	16.15139	15193	BA	Europe/Sarajevo
3204186	Bijeljina	44.75874	19.21437	37692	BA	Europe/Sarajevo
3204222	Bihać	44.81694	15.87083	75641	BA	Europe/Sarajevo
3204541	Banja Luka	44.77842	17.19386	221106	BA	Europe/Sarajevo
3337476	Konjic	43.65126	17.96082	15950	BA	Europe/Sarajevo
3374036	Bridgetown	13.10732	-59.62021	98511	BB	America/Barbados
1185092	Thākurgaon	26.03097	88.46989	71096	BD	Asia/Dhaka
1185095	Teknāf	20.85829	92.29773	40557	BD	Asia/Dhaka
1185098	Tungi	23.89154	90.40232	337579	BD	Asia/Dhaka
1185099	Sylhet	24.89904	91.87198	237000	BD	Asia/Dhaka
1185100	Dohār	23.59311	90.14251	45543	BD	Asia/Dhaka
1185106	Jamālpur	24.91965	89.94812	167900	BD	Asia/Dhaka
1185107	Shibganj	25.00146	89.32266	378701	BD	Asia/Dhaka
1185108	Shibganj	24.68501	88.15638	35961	BD	Asia/Dhaka
1185111	Sātkhira	22.70817	89.07185	128918	BD	Asia/Dhaka
1185115	Sirajganj	24.45771	89.70802	127481	BD	Asia/Dhaka
1185116	Netrakona	24.88352	90.72898	79016	BD	Asia/Dhaka
1185117	Narsingdi	23.92298	90.71768	281080	BD	Asia/Dhaka
1185120	Sandwīp	22.51409	91.45491	52152	BD	Asia/Dhaka
1185121	Shāhzādpur	24.17687	89.5988	102420	BD	Asia/Dhaka
1185127	Rāmganj	23.1006	90.84989	55241	BD	Asia/Dhaka
1185128	Rājshāhi	24.374	88.60114	700133	BD	Asia/Dhaka
1185138	Pirojpur	22.57965	89.97521	54418	BD	Asia/Dhaka
1185141	Panchagarh	26.33338	88.55777	48531	BD	Asia/Dhaka
1185148	Patiya	22.29543	91.979	51360	BD	Asia/Dhaka
1185149	Parbatipur	25.66369	88.93093	48020	BD	Asia/Dhaka
1185155	Nārāyanganj	23.61352	90.50298	223622	BD	Asia/Dhaka
1185156	Nālchiti	22.63696	90.27195	38703	BD	Asia/Dhaka
1185159	Nāgarpur	24.05783	89.87696	238422	BD	Asia/Dhaka
1185160	Nageswari	25.96817	89.69153	49425	BD	Asia/Dhaka
1185162	Mymensingh	24.75636	90.40646	225126	BD	Asia/Dhaka
1185164	Muktāgācha	24.76484	90.25698	24684	BD	Asia/Dhaka
1185165	Mirzāpur	24.10287	90.09841	41137	BD	Asia/Dhaka
1185166	Maulavi Bāzār	24.48888	91.77075	57441	BD	Asia/Dhaka
1185167	Morrelgonj	22.45566	89.85584	31647	BD	Asia/Dhaka
1185171	Mehendiganj	22.82257	90.52859	39424	BD	Asia/Dhaka
1185173	Mathba	22.28616	89.95883	29760	BD	Asia/Dhaka
1185181	Lalmonirhat	25.91719	89.44595	65127	BD	Asia/Dhaka
1185183	Lākshām	23.24018	91.12143	82290	BD	Asia/Dhaka
1185186	Comilla	23.46186	91.18503	389411	BD	Asia/Dhaka
1185188	Rangpur	25.74664	89.25166	343122	BD	Asia/Dhaka
1185191	Kushtia	23.9028	89.11943	135724	BD	Asia/Dhaka
1185199	Kālīganj	23.40964	89.13801	45631	BD	Asia/Dhaka
1185204	Jhingergācha	23.11134	89.09061	41957	BD	Asia/Dhaka
1185206	Joypur Hāt	25.10147	89.02734	73068	BD	Asia/Dhaka
1185207	Ishurdi	24.12858	89.06573	81995	BD	Asia/Dhaka
1185209	Habiganj	24.38044	91.41299	88760	BD	Asia/Dhaka
1185210	Gaurnadi	22.97372	90.22376	40519	BD	Asia/Dhaka
1185218	Gafargaon	24.432	90.5585	34177	BD	Asia/Dhaka
1185224	Feni	23.0144	91.3966	84028	BD	Asia/Dhaka
1185236	Rāipur	23.0391	90.76808	64652	BD	Asia/Dhaka
1185239	Sarankhola	22.31006	89.79113	36470	BD	Asia/Dhaka
1185241	Dhaka	23.7104	90.40744	10356500	BD	Asia/Dhaka
1185247	Chilmāri	25.55613	89.67097	49736	BD	Asia/Dhaka
1185249	Chhāgalnāiya	23.02475	91.51091	39335	BD	Asia/Dhaka
1185251	Lālmohan	22.33774	90.73708	42220	BD	Asia/Dhaka
1185252	Khagrachhari	23.10787	91.97007	50364	BD	Asia/Dhaka
1185254	Chhātak	25.03852	91.66958	39218	BD	Asia/Dhaka
1185260	Bhātpāra Abhaynagar	23.01472	89.43936	42653	BD	Asia/Dhaka
1185262	Bherāmāra	24.02452	88.99234	38159	BD	Asia/Dhaka
1185263	Bhairab Bāzār	24.0524	90.9764	105457	BD	Asia/Dhaka
1185270	Bāndarban	22.19534	92.21946	32523	BD	Asia/Dhaka
1185272	Kālia	23.043	89.63094	40492	BD	Asia/Dhaka
1185274	Baniachang	24.51863	91.35787	37807	BD	Asia/Dhaka
1185276	Bājitpur	24.21623	90.95002	34560	BD	Asia/Dhaka
1185281	Bagerhat	22.65657	89.79123	266388	BD	Asia/Dhaka
1185283	Badarganj	25.67419	89.05377	32600	BD	Asia/Dhaka
1185293	Narail	23.15509	89.49515	55112	BD	Asia/Dhaka
1185920	Tungipāra	22.89983	89.90326	62210	BD	Asia/Dhaka
1187530	Sonārgaon	23.65	90.61667	130000	BD	Asia/Dhaka
1188569	Sarishābāri	24.75127	89.83126	81325	BD	Asia/Dhaka
1189056	Sakhipur	24.31988	90.16943	40869	BD	Asia/Dhaka
1189638	Raojān	22.53511	91.91919	25708	BD	Asia/Dhaka
1191139	Phultala	22.71673	89.51194	37985	BD	Asia/Dhaka
1191368	Pālang	23.21824	90.35076	67652	BD	Asia/Dhaka
1192366	Pār Naogaon	24.80418	88.94875	192464	BD	Asia/Dhaka
1193823	Nabīnagar	23.88791	90.96792	31671	BD	Asia/Dhaka
1196292	Lakshmīpur	22.9443	90.83005	61703	BD	Asia/Dhaka
1197895	Kesabpur	22.90725	89.21954	30926	BD	Asia/Dhaka
1201753	Hājīganj	23.25191	90.85508	44343	BD	Asia/Dhaka
1203344	Farīdpur	23.60612	89.84064	112187	BD	Asia/Dhaka
1203891	Dinājpur	25.62745	88.63779	206234	BD	Asia/Dhaka
1205481	Uttar Char Fasson	22.22647	90.71275	48305	BD	Asia/Dhaka
1205733	Chittagong	22.3384	91.83168	3920222	BD	Asia/Dhaka
1207047	Char Bhadrāsan	23.30916	90.22698	34423	BD	Asia/Dhaka
1209562	Bera	24.07821	89.63262	39604	BD	Asia/Dhaka
1210565	Burhānuddin	22.49518	90.72391	45670	BD	Asia/Dhaka
1336133	Sātkania	22.07639	92.04955	52005	BD	Asia/Dhaka
1336134	Cox’s Bāzār	21.43973	92.00955	253788	BD	Asia/Dhaka
1336135	Khulna	22.80979	89.56439	1342339	BD	Asia/Dhaka
1336136	Bhola	22.68759	90.64403	99079	BD	Asia/Dhaka
1336137	Barisāl	22.70497	90.37013	202242	BD	Asia/Dhaka
1336140	Jessore	23.16971	89.21371	243987	BD	Asia/Dhaka
1336143	Pābna	24.00644	89.2372	186781	BD	Asia/Dhaka
1336144	Tāngāil	24.24984	89.91655	180144	BD	Asia/Dhaka
1337233	Bogra	24.85098	89.37108	210000	BD	Asia/Dhaka
1337239	Pīrgaaj	25.85587	88.35943	34606	BD	Asia/Dhaka
1337240	Nawābganj	24.59025	88.27444	142361	BD	Asia/Dhaka
1337245	Mādārīpur	23.17097	90.20935	84789	BD	Asia/Dhaka
1337248	Sherpur	25.01881	90.01751	107419	BD	Asia/Dhaka
1337249	Kishorganj	24.43944	90.78291	90690	BD	Asia/Dhaka
1462681	Manikchari	22.83957	91.84128	24813	BD	Asia/Dhaka
1477498	Bhāndāria	22.48898	90.06273	30219	BD	Asia/Dhaka
6414184	Bibir Hat	22.68347	91.79058	89030	BD	Asia/Dhaka
6545349	Saidpur	25.77769	88.89169	199422	BD	Asia/Dhaka
7483743	Puthia	24.36537	88.83431	159406	BD	Asia/Dhaka
7483813	Natore	24.41112	88.98673	369138	BD	Asia/Dhaka
7701354	Azimpur	23.7298	90.3854	96641	BD	Asia/Dhaka
9827976	Paltan	23.73625	90.41426	184492	BD	Asia/Dhaka
11609988	Joymontop	23.78789	90.16472	56000	BD	Asia/Dhaka
2783081	Zwijndrecht	51.21979	4.32664	18249	BE	Europe/Brussels
2783089	Zwevegem	50.81268	3.33848	23358	BE	Europe/Brussels
2783175	Zottegem	50.86955	3.81052	24434	BE	Europe/Brussels
2783188	Zonhoven	50.99064	5.36819	19922	BE	Europe/Brussels
2783204	Zoersel	51.26825	4.71296	20642	BE	Europe/Brussels
2783274	Zemst	50.98318	4.46079	21096	BE	Europe/Brussels
2783293	Zele	51.06566	4.0403	20236	BE	Europe/Brussels
2783308	Zedelgem	51.14236	3.1368	21968	BE	Europe/Brussels
2783310	Zaventem	50.88365	4.47298	28188	BE	Europe/Brussels
2783416	Wuustwezel	51.39214	4.59546	18117	BE	Europe/Brussels
2783632	Willebroek	51.06041	4.36019	22808	BE	Europe/Brussels
2783759	Wevelgem	50.8	3.16667	30954	BE	Europe/Brussels
2783763	Wetteren	51.00526	3.88341	22930	BE	Europe/Brussels
2783801	Westerlo	51.09049	4.91544	22579	BE	Europe/Brussels
2783820	Wervik	50.78069	3.03854	17340	BE	Europe/Brussels
2783941	Wavre	50.71717	4.60138	32112	BE	Europe/Brussels
2783985	Waterloo	50.71469	4.3991	29778	BE	Europe/Brussels
2784068	Waregem	50.88898	3.42756	35896	BE	Europe/Brussels
2784189	Walcourt	50.25401	4.43796	17501	BE	Europe/Brussels
2784548	Visé	50.7376	5.69907	17054	BE	Europe/Brussels
2784604	Vilvoorde	50.92814	4.42938	36955	BE	Europe/Brussels
2784821	Verviers	50.58907	5.86241	52824	BE	Europe/Brussels
2785141	Turnhout	51.32254	4.94471	39654	BE	Europe/Brussels
2785169	Tubize	50.69059	4.2009	21859	BE	Europe/Brussels
2785341	Tournai	50.60715	3.38932	67721	BE	Europe/Brussels
2785364	Torhout	51.0656	3.10085	18933	BE	Europe/Brussels
2785389	Tongeren	50.78054	5.46484	29816	BE	Europe/Brussels
2785470	Tienen	50.80745	4.9378	31743	BE	Europe/Brussels
2785476	Tielt	50.99931	3.32707	19299	BE	Europe/Brussels
2785612	Tessenderlo	51.06513	5.08856	16574	BE	Europe/Brussels
2785622	Tervuren	50.82372	4.51418	20623	BE	Europe/Brussels
2785778	Temse	51.12794	4.21372	26054	BE	Europe/Brussels
2786087	Stekene	51.2099	4.03651	16989	BE	Europe/Brussels
2786229	Stabroek	51.33189	4.37127	17294	BE	Europe/Brussels
2786344	Soumagne	50.61385	5.74679	15237	BE	Europe/Brussels
2786420	Soignies	50.57904	4.07129	24869	BE	Europe/Brussels
2786545	Sint-Truiden	50.81679	5.18647	37859	BE	Europe/Brussels
2786559	Sint-Pieters-Leeuw	50.77926	4.24355	30446	BE	Europe/Brussels
2786578	Sint-Niklaas	51.16509	4.1437	69010	BE	Europe/Brussels
2786634	Sint-Kruis	51.21399	3.24949	16000	BE	Europe/Brussels
2786641	Sint-Katelijne-Waver	51.06691	4.53469	19487	BE	Europe/Brussels
2786694	Sint-Gillis-Waas	51.21914	4.12374	17658	BE	Europe/Brussels
2786700	Sint-Genesius-Rode	50.74645	4.35754	17990	BE	Europe/Brussels
2786824	Seraing	50.58362	5.50115	60737	BE	Europe/Brussels
2786963	Schoten	51.25251	4.50268	33622	BE	Europe/Brussels
2787048	Schilde	51.24107	4.58336	20373	BE	Europe/Brussels
2787356	Saint-Nicolas	50.62837	5.53243	22586	BE	Europe/Brussels
2787416	Saint-Ghislain	50.44816	3.81886	22500	BE	Europe/Brussels
2787662	Rotselaar	50.95302	4.71665	15007	BE	Europe/Brussels
2787769	Ronse	50.74574	3.6005	24204	BE	Europe/Brussels
2787889	Roeselare	50.94653	3.12269	56016	BE	Europe/Brussels
2787989	Rixensart	50.71229	4.52529	21616	BE	Europe/Brussels
2788088	Riemst	50.80995	5.60131	15809	BE	Europe/Brussels
2788348	Ranst	51.18983	4.56533	17405	BE	Europe/Brussels
2788499	Quaregnon	50.44067	3.8653	18491	BE	Europe/Brussels
2788506	Puurs	51.07409	4.28844	15944	BE	Europe/Brussels
2788521	Putte	51.05337	4.63263	15276	BE	Europe/Brussels
2788726	Poperinge	50.85386	2.72659	19537	BE	Europe/Brussels
2788765	Pont-à-Celles	50.50518	4.36887	15909	BE	Europe/Brussels
2789162	Péruwelz	50.50819	3.59373	16647	BE	Europe/Brussels
2789232	Peer	51.1303	5.45952	15551	BE	Europe/Brussels
2789413	Overijse	50.77436	4.53461	23486	BE	Europe/Brussels
2789471	Oupeye	50.71184	5.6468	23594	BE	Europe/Brussels
2789529	Oudenaarde	50.85168	3.60891	27935	BE	Europe/Brussels
2789751	Oostkamp	51.15432	3.23128	21489	BE	Europe/Brussels
2789786	Ostend	51.21551	2.927	69011	BE	Europe/Brussels
2790101	Nivelles	50.59833	4.32848	24149	BE	Europe/Brussels
2790114	Ninove	50.82776	4.02657	34795	BE	Europe/Brussels
2790135	Nijlen	51.16096	4.67008	20792	BE	Europe/Brussels
2790357	Neerpelt	51.22807	5.4427	16122	BE	Europe/Brussels
2790471	Namur	50.4669	4.86746	106284	BE	Europe/Brussels
2790595	Mouscron	50.74497	3.20639	52069	BE	Europe/Brussels
2790676	Mortsel	51.16697	4.45127	24525	BE	Europe/Brussels
2790697	Morlanwelz-Mariemont	50.45502	4.24519	18233	BE	Europe/Brussels
2790869	Mons	50.45413	3.95229	91277	BE	Europe/Brussels
2791067	Mol	51.19188	5.11662	32659	BE	Europe/Brussels
2791194	Middelkerke	51.18532	2.82077	17789	BE	Europe/Brussels
2791315	Merelbeke	50.99447	3.74621	22047	BE	Europe/Brussels
2791343	Menen	50.79722	3.12245	31916	BE	Europe/Brussels
2791424	Meise	50.93934	4.32655	18497	BE	Europe/Brussels
2791537	Mechelen	51.02574	4.47762	77530	BE	Europe/Brussels
2791744	Marche-en-Famenne	50.22678	5.34416	16856	BE	Europe/Brussels
2791814	Manage	50.50312	4.23589	22196	BE	Europe/Brussels
2791857	Maldegem	51.20737	3.44511	22092	BE	Europe/Brussels
2791961	Maasmechelen	50.96545	5.69452	36251	BE	Europe/Brussels
2791964	Maaseik	51.09802	5.78379	23684	BE	Europe/Brussels
2792073	Louvain-la-Neuve	50.66829	4.61443	29521	BE	Europe/Brussels
2792165	Londerzeel	51.00468	4.30304	17274	BE	Europe/Brussels
2792179	Lommel	51.23074	5.31349	31993	BE	Europe/Brussels
2792196	Lokeren	51.10364	3.99339	37567	BE	Europe/Brussels
2792235	Lochristi	51.09644	3.83194	19696	BE	Europe/Brussels
2792360	Lille	51.24197	4.82313	15466	BE	Europe/Brussels
2792397	Lier	51.13128	4.57041	33272	BE	Europe/Brussels
2792413	Liège	50.63373	5.56749	182597	BE	Europe/Brussels
2792482	Leuven	50.87959	4.70093	92892	BE	Europe/Brussels
2792567	Lessines	50.71104	3.83579	17687	BE	Europe/Brussels
2793077	Lede	50.96626	3.98594	16813	BE	Europe/Brussels
2793144	Lebbeke	51.00464	4.13457	17372	BE	Europe/Brussels
2793446	Lanaken	50.89318	5.6468	24771	BE	Europe/Brussels
2793508	La Louvière	50.48657	4.18785	76668	BE	Europe/Brussels
2794055	Kortrijk	50.82803	3.26487	73879	BE	Europe/Brussels
2794070	Kortenberg	50.88982	4.54353	17774	BE	Europe/Brussels
2794117	Kontich	51.13213	4.44706	20290	BE	Europe/Brussels
2794166	Koksijde	51.11642	2.63772	21027	BE	Europe/Brussels
2794210	Knokke-Heist	51.35	3.26667	33781	BE	Europe/Brussels
2794663	Kasterlee	51.24118	4.96651	17765	BE	Europe/Brussels
2794730	Kapellen	51.31377	4.43539	26410	BE	Europe/Brussels
2794788	Kalmthout	51.38442	4.47556	17485	BE	Europe/Brussels
2795009	Izegem	50.91396	3.21378	26382	BE	Europe/Brussels
2795100	Ieper	50.85114	2.88569	35089	BE	Europe/Brussels
2795113	Huy	50.51894	5.23284	19973	BE	Europe/Brussels
2795261	Houthalen	51.03427	5.37429	30050	BE	Europe/Brussels
2795398	Hoogstraten	51.40029	4.76034	18524	BE	Europe/Brussels
2795730	Hoboken	51.17611	4.34844	34443	BE	Europe/Brussels
2795800	Heusden	51.03664	5.28013	31017	BE	Europe/Brussels
2795908	Herzele	50.88681	3.89014	16523	BE	Europe/Brussels
2795912	Herve	50.64083	5.79353	16544	BE	Europe/Brussels
2795930	Herstal	50.66415	5.62346	36503	BE	Europe/Brussels
2796009	Herentals	51.17655	4.83248	25912	BE	Europe/Brussels
2796012	Herent	50.90861	4.67056	19218	BE	Europe/Brussels
2796132	Helchteren	51.05591	5.38244	30050	BE	Europe/Brussels
2796153	Heist-op-den-Berg	51.07537	4.72827	37873	BE	Europe/Brussels
2796491	Hasselt	50.93106	5.33781	69222	BE	Europe/Brussels
2796542	Harelbeke	50.85343	3.30935	25978	BE	Europe/Brussels
2796637	Hamme	51.09822	4.13705	22891	BE	Europe/Brussels
2796696	Halle	50.73385	4.23454	34479	BE	Europe/Brussels
2796833	Haaltert	50.90634	4.00093	17129	BE	Europe/Brussels
2797114	Grimbergen	50.93409	4.37213	33561	BE	Europe/Brussels
2797638	Geraardsbergen	50.77343	3.88223	30807	BE	Europe/Brussels
2797656	Gent	51.05	3.71667	231493	BE	Europe/Brussels
2797670	Genk	50.965	5.50082	63666	BE	Europe/Brussels
2797713	Gembloux	50.56149	4.69889	21676	BE	Europe/Brussels
2797779	Geel	51.16557	4.98917	34697	BE	Europe/Brussels
2798023	Frameries	50.40578	3.89603	20598	BE	Europe/Brussels
2798297	Fleurus	50.48351	4.55006	22080	BE	Europe/Brussels
2798301	Fléron	50.61516	5.68062	15994	BE	Europe/Brussels
2798307	Flémalle-Haute	50.59994	5.44471	25144	BE	Europe/Brussels
2798551	Evergem	51.11306	3.70976	31615	BE	Europe/Brussels
2798573	Eupen	50.6279	6.03647	18029	BE	Europe/Brussels
2798615	Essen	51.46791	4.46901	16754	BE	Europe/Brussels
2798987	Eeklo	51.18703	3.55654	19116	BE	Europe/Brussels
2799007	Edegem	51.15662	4.44504	21839	BE	Europe/Brussels
2799090	Duffel	51.09554	4.50903	16011	BE	Europe/Brussels
2799226	Dour	50.39583	3.77792	16861	BE	Europe/Brussels
2799365	Dilbeek	50.84799	4.25972	39482	BE	Europe/Brussels
2799369	Diksmuide	51.03248	2.86384	15515	BE	Europe/Brussels
2799397	Diest	50.98923	5.05062	22516	BE	Europe/Brussels
2799412	Diepenbeek	50.90769	5.41875	17699	BE	Europe/Brussels
2799478	Deurne	51.22134	4.46595	78747	BE	Europe/Brussels
2799496	Destelbergen	51.05952	3.79899	16853	BE	Europe/Brussels
2799645	Dendermonde	51.02869	4.10106	43055	BE	Europe/Brussels
2799647	Denderleeuw	50.88506	4.07601	16969	BE	Europe/Brussels
2799746	Deinze	50.98175	3.53096	29815	BE	Europe/Brussels
2800063	Courcelles	50.46379	4.3747	29473	BE	Europe/Brussels
2800220	Colfontaine	50.4141	3.85569	19964	BE	Europe/Brussels
2800438	Chaudfontaine	50.5828	5.6341	20960	BE	Europe/Brussels
2800448	Châtelet	50.40338	4.52826	35238	BE	Europe/Brussels
2800461	Chasse Royale	50.42842	3.95001	0	BE	Europe/Brussels
2800481	Charleroi	50.41136	4.44448	200132	BE	Europe/Brussels
2800866	Brussels	50.85045	4.34878	1019022	BE	Europe/Brussels
2800931	Brugge	51.20892	3.22424	116709	BE	Europe/Brussels
2801106	Brecht	51.35024	4.63829	25908	BE	Europe/Brussels
2801117	Brasschaat	51.2912	4.49182	37040	BE	Europe/Brussels
2801150	Braine-le-Comte	50.60979	4.14658	20133	BE	Europe/Brussels
2801154	Braine-l'Alleud	50.68363	4.36784	37512	BE	Europe/Brussels
2801226	Boussu	50.43417	3.7944	20058	BE	Europe/Brussels
2801447	Bornem	51.09716	4.24364	19997	BE	Europe/Brussels
2801494	Boom	51.09242	4.3717	15810	BE	Europe/Brussels
2801858	Blankenberge	51.31306	3.13227	18230	BE	Europe/Brussels
2801922	Binche	50.41155	4.16469	32030	BE	Europe/Brussels
2801924	Bilzen	50.87325	5.5184	29622	BE	Europe/Brussels
2802031	Beveren	51.21187	4.25633	45179	BE	Europe/Brussels
2802170	Beringen	51.04954	5.22606	40930	BE	Europe/Brussels
2802433	Beersel	50.76589	4.3002	23228	BE	Europe/Brussels
2802435	Beerse	51.31927	4.85304	16208	BE	Europe/Brussels
2802743	Balen	51.16837	5.17027	19978	BE	Europe/Brussels
2803010	Ath	50.62937	3.77801	26681	BE	Europe/Brussels
2803033	Asse	50.91011	4.19836	28985	BE	Europe/Brussels
2803073	Arlon	49.68333	5.81667	26179	BE	Europe/Brussels
2803138	Antwerpen	51.21989	4.40346	459805	BE	Europe/Brussels
2803160	Ans	50.6623	5.52029	27297	BE	Europe/Brussels
2803204	Andenne	50.48941	5.09513	24055	BE	Europe/Brussels
2803429	Aarschot	50.98715	4.83695	27656	BE	Europe/Brussels
2803443	Aalter	51.09017	3.44693	18802	BE	Europe/Brussels
2803448	Aalst	50.93604	4.0355	77534	BE	Europe/Brussels
2353197	Zorgo	12.24922	-0.61527	23892	BF	Africa/Ouagadougou
2353688	Yako	12.9591	-2.26075	22904	BF	Africa/Ouagadougou
2354176	Tougan	13.0725	-3.0694	17590	BF	Africa/Ouagadougou
2354349	Titao	13.76667	-2.06667	19131	BF	Africa/Ouagadougou
2354675	Tenkodogo	11.78	-0.36972	37658	BF	Africa/Ouagadougou
2356228	Réo	12.31963	-2.47094	37535	BF	Africa/Ouagadougou
2356454	Pô	11.16972	-1.145	17924	BF	Africa/Ouagadougou
2357043	Ouahigouya	13.58278	-2.42158	61096	BF	Africa/Ouagadougou
2357048	Ouagadougou	12.36566	-1.53388	1086505	BF	Africa/Ouagadougou
2357163	Nouna	12.72939	-3.86305	29048	BF	Africa/Ouagadougou
2358100	Manga	11.66361	-1.07306	15173	BF	Africa/Ouagadougou
2358382	Léo	11.10033	-2.10654	26884	BF	Africa/Ouagadougou
2358738	Koupéla	12.17864	-0.35103	32052	BF	Africa/Ouagadougou
2358946	Koudougou	12.25263	-2.36272	87347	BF	Africa/Ouagadougou
2359142	Kongoussi	13.32583	-1.53472	26338	BF	Africa/Ouagadougou
2359227	Kombissiri	12.06884	-1.33644	30137	BF	Africa/Ouagadougou
2359317	Kokologo	12.19392	-1.87687	25958	BF	Africa/Ouagadougou
2359608	Kaya	13.09167	-1.08444	39229	BF	Africa/Ouagadougou
2360073	Houndé	11.5	-3.51667	36593	BF	Africa/Ouagadougou
2360238	Gourcy	13.20776	-2.35893	16765	BF	Africa/Ouagadougou
2360615	Garango	11.8	-0.55056	29076	BF	Africa/Ouagadougou
2360886	Fada N'gourma	12.06157	0.35843	33910	BF	Africa/Ouagadougou
2361082	Dori	14.0354	-0.0345	37806	BF	Africa/Ouagadougou
2361177	Djibo	14.0994	-1.62554	22223	BF	Africa/Ouagadougou
2361373	Diapaga	12.07305	1.78838	26013	BF	Africa/Ouagadougou
2361477	Dédougou	12.46338	-3.46075	45341	BF	Africa/Ouagadougou
2361845	Boussé	12.66121	-1.89515	15868	BF	Africa/Ouagadougou
2361946	Boulsa	12.66664	-0.57469	17489	BF	Africa/Ouagadougou
2362344	Bobo-Dioulasso	11.17715	-4.2979	360106	BF	Africa/Ouagadougou
2362909	Banfora	10.63333	-4.76667	60288	BF	Africa/Ouagadougou
725578	Yambol	42.48333	26.5	80116	BG	Europe/Sofia
725712	Vratsa	43.21	23.5625	64941	BG	Europe/Sofia
725905	Vidin	43.99159	22.88236	54409	BG	Europe/Sofia
725988	Velingrad	42.02754	23.99155	24036	BG	Europe/Sofia
725993	Veliko Tŭrnovo	43.08124	25.62904	66217	BG	Europe/Sofia
726050	Varna	43.21667	27.91667	312770	BG	Europe/Sofia
726174	Targovishte	43.2512	26.57215	37774	BG	Europe/Sofia
726320	Troyan	42.89427	24.71589	21162	BG	Europe/Sofia
726418	Dobrich	43.56667	27.83333	94831	BG	Europe/Sofia
726534	Svishtov	43.61875	25.35033	32256	BG	Europe/Sofia
726546	Svilengrad	41.76667	26.2	19279	BG	Europe/Sofia
726848	Stara Zagora	42.43278	25.64194	143431	BG	Europe/Sofia
726872	Dupnitsa	42.26667	23.11667	34764	BG	Europe/Sofia
727011	Sofia	42.69751	23.32415	1152556	BG	Europe/Sofia
727030	Smolyan	41.57439	24.71204	32069	BG	Europe/Sofia
727079	Sliven	42.68583	26.32917	96368	BG	Europe/Sofia
727221	Silistra	44.1171	27.26056	39715	BG	Europe/Sofia
727233	Shumen	43.27064	26.92286	87283	BG	Europe/Sofia
727337	Sevlievo	43.02583	25.11361	24582	BG	Europe/Sofia
727447	Sandanski	41.56667	23.28333	26459	BG	Europe/Sofia
727462	Samokov	42.337	23.5528	26765	BG	Europe/Sofia
727523	Ruse	43.84872	25.9534	156238	BG	Europe/Sofia
727696	Razgrad	43.53333	26.51667	38285	BG	Europe/Sofia
727791	Rakovski	42.27408	24.94083	15782	BG	Europe/Sofia
727886	Parvomay	42.1	25.21667	17000	BG	Europe/Sofia
728075	Popovo	43.35	26.23333	16571	BG	Europe/Sofia
728193	Plovdiv	42.15	24.75	340494	BG	Europe/Sofia
728203	Pleven	43.41667	24.61667	118675	BG	Europe/Sofia
728288	Petrich	41.39846	23.20702	30308	BG	Europe/Sofia
728317	Peshtera	42.03372	24.29995	18676	BG	Europe/Sofia
728330	Pernik	42.6	23.03333	82467	BG	Europe/Sofia
728378	Pazardzhik	42.2	24.33333	75977	BG	Europe/Sofia
728448	Panagyurishte	42.49518	24.19021	19389	BG	Europe/Sofia
728742	Nova Zagora	42.48333	26.01667	24340	BG	Europe/Sofia
729114	Montana	43.4125	23.225	47445	BG	Europe/Sofia
729559	Lovech	43.13333	24.71667	42211	BG	Europe/Sofia
729581	Lom	43.82106	23.23677	26594	BG	Europe/Sofia
729730	Kyustendil	42.28389	22.69111	48286	BG	Europe/Sofia
729794	Kardzhali	41.65	25.36667	51000	BG	Europe/Sofia
730435	Haskovo	41.93415	25.55557	79699	BG	Europe/Sofia
730442	Harmanli	41.93333	25.9	18931	BG	Europe/Sofia
730496	Kazanlak	42.61667	25.4	55196	BG	Europe/Sofia
730559	Karnobat	42.65	26.98333	19709	BG	Europe/Sofia
730565	Karlovo	42.63333	24.8	19958	BG	Europe/Sofia
731108	Gotse Delchev	41.56667	23.73333	20471	BG	Europe/Sofia
731233	Gorna Oryahovitsa	43.12778	25.70167	32792	BG	Europe/Sofia
731549	Gabrovo	42.87472	25.33417	66175	BG	Europe/Sofia
732263	Dimitrovgrad	42.05	25.6	43288	BG	Europe/Sofia
732452	Chirpan	42.2	25.33333	17243	BG	Europe/Sofia
732491	Cherven Bryag	43.26667	24.1	21688	BG	Europe/Sofia
732770	Burgas	42.50606	27.46781	195966	BG	Europe/Sofia
733014	Botevgrad	42.9	23.78333	20909	BG	Europe/Sofia
733191	Blagoevgrad	42.01667	23.1	71306	BG	Europe/Sofia
733264	Berkovitsa	43.23581	23.12738	15027	BG	Europe/Sofia
733579	Aytos	42.7	27.25	20986	BG	Europe/Sofia
733618	Asenovgrad	42.01667	24.86667	52170	BG	Europe/Sofia
290104	Sitrah	26.15472	50.62056	37657	BH	Asia/Bahrain
290187	Madīnat ‘Īsá	26.17361	50.54778	38090	BH	Asia/Bahrain
290215	Jidd Ḩafş	26.21861	50.54778	31735	BH	Asia/Bahrain
290247	Madīnat Ḩamad	26.11528	50.50694	52718	BH	Asia/Bahrain
290269	Dār Kulayb	26.06861	50.50389	65466	BH	Asia/Bahrain
290332	Al Muharraq	26.25722	50.61194	97458	BH	Asia/Bahrain
290340	Manama	26.22787	50.58565	147074	BH	Asia/Bahrain
385038	Ar Rifā‘	26.13	50.555	79550	BH	Asia/Bahrain
422232	Makamba	-4.1348	29.804	19642	BI	Africa/Bujumbura
423328	Bururi	-3.94877	29.62438	19740	BI	Africa/Bujumbura
425378	Bujumbura	-3.38193	29.36142	331700	BI	Africa/Bujumbura
425551	Muramvya	-3.2682	29.6079	18041	BI	Africa/Bujumbura
426272	Gitega	-3.42708	29.92463	41000	BI	Africa/Bujumbura
426700	Ruyigi	-3.47639	30.24861	38458	BI	Africa/Bujumbura
430569	Ngozi	-2.9075	29.8306	21506	BI	Africa/Bujumbura
430952	Kayanza	-2.9221	29.6293	19443	BI	Africa/Bujumbura
431748	Muyinga	-2.8451	30.3414	71076	BI	Africa/Bujumbura
433635	Rutana	-3.9279	29.992	20893	BI	Africa/Bujumbura
2391377	Tchaourou	8.88649	2.59753	20971	BJ	Africa/Porto-Novo
2391455	Tanguiéta	10.62118	1.26651	19833	BJ	Africa/Porto-Novo
2391893	Savé	8.03424	2.4866	75970	BJ	Africa/Porto-Novo
2391895	Savalou	7.92807	1.97558	30187	BJ	Africa/Porto-Novo
2392009	Sakété	6.73618	2.65866	30111	BJ	Africa/Porto-Novo
2392087	Porto-Novo	6.49646	2.60359	234168	BJ	Africa/Porto-Novo
2392108	Pobé	6.98008	2.6649	32983	BJ	Africa/Porto-Novo
2392204	Parakou	9.33716	2.63031	163753	BJ	Africa/Porto-Novo
2392308	Ouidah	6.36307	2.08506	83503	BJ	Africa/Porto-Novo
2392505	Nikki	9.94009	3.21075	54009	BJ	Africa/Porto-Novo
2392601	Natitingou	10.30416	1.37962	80892	BJ	Africa/Porto-Novo
2392837	Malanville	11.86819	3.38327	37117	BJ	Africa/Porto-Novo
2392897	Lokossa	6.63869	1.71674	86971	BJ	Africa/Porto-Novo
2393551	Kétou	7.36332	2.59978	22341	BJ	Africa/Porto-Novo
2393693	Kandi	11.13417	2.93861	109701	BJ	Africa/Porto-Novo
2394545	Dogbo	6.79911	1.78073	41312	BJ	Africa/Porto-Novo
2394560	Djougou	9.70853	1.66598	237040	BJ	Africa/Porto-Novo
2394711	Dassa-Zoumé	7.75	2.18333	21672	BJ	Africa/Porto-Novo
2394814	Cové	7.22097	2.34017	38566	BJ	Africa/Porto-Novo
2394819	Cotonou	6.36536	2.41833	780000	BJ	Africa/Porto-Novo
2394824	Comé	6.40764	1.88198	29208	BJ	Africa/Porto-Novo
2395049	Bohicon	7.17826	2.0667	125092	BJ	Africa/Porto-Novo
2395182	Bembèrèkè	10.22827	2.66335	24006	BJ	Africa/Porto-Novo
2395261	Bassila	9.00814	1.6654	23616	BJ	Africa/Porto-Novo
2395317	Banikoara	11.29845	2.43856	22487	BJ	Africa/Porto-Novo
2395568	Aplahoué	6.93333	1.68333	19862	BJ	Africa/Porto-Novo
2395635	Allada	6.66547	2.15138	20094	BJ	Africa/Porto-Novo
2395914	Abomey-Calavi	6.44852	2.35566	385755	BJ	Africa/Porto-Novo
2395915	Abomey	7.18286	1.99119	82154	BJ	Africa/Porto-Novo
3579132	Gustavia	17.89618	-62.84978	5988	BL	America/St_Barthelemy
3573197	Hamilton	32.2949	-64.78303	902	BM	Atlantic/Bermuda
1820071	Tutong	4.80278	114.64917	19151	BN	Asia/Brunei
1820187	Seria	4.60637	114.32476	30097	BN	Asia/Brunei
1820491	Kuala Belait	4.58361	114.2312	31178	BN	Asia/Brunei
1820906	Bandar Seri Begawan	4.89035	114.94006	64409	BN	Asia/Brunei
3901178	Yacuiba	-22.01643	-63.67753	82803	BO	America/La_Paz
3901301	Warnes	-17.5163	-63.16778	22036	BO	America/La_Paz
3901501	Villazón	-22.08659	-65.59422	30253	BO	America/La_Paz
3901504	Villa Yapacaní	-17.4	-63.83333	18187	BO	America/La_Paz
3901547	Villamontes	-21.26235	-63.46903	18761	BO	America/La_Paz
3902202	Tupiza	-21.44345	-65.71875	22233	BO	America/La_Paz
3902377	Trinidad	-14.83333	-64.9	84259	BO	America/La_Paz
3902949	Tiquipaya	-17.33801	-66.21579	53904	BO	America/La_Paz
3903320	Tarija	-21.53549	-64.72956	159269	BO	America/La_Paz
3903987	Sucre	-19.03332	-65.26274	224838	BO	America/La_Paz
3904666	Santiago del Torno	-17.98674	-63.38118	15543	BO	America/La_Paz
3904906	Santa Cruz de la Sierra	-17.78629	-63.18117	1364389	BO	America/La_Paz
3905658	San Ignacio de Velasco	-16.36667	-60.95	23569	BO	America/La_Paz
3905792	San Borja	-14.81667	-66.85	19640	BO	America/La_Paz
3906194	Sacaba	-17.39799	-66.03825	107628	BO	America/La_Paz
3906466	Riberalta	-11.00654	-66.06312	74014	BO	America/La_Paz
3906791	Quillacollo	-17.39228	-66.27838	87309	BO	America/La_Paz
3907080	Punata	-17.54234	-65.83472	15194	BO	America/La_Paz
3907584	Potosí	-19.58361	-65.75306	141251	BO	America/La_Paz
3909234	Oruro	-17.98333	-67.15	208684	BO	America/La_Paz
3910027	Montero	-17.33866	-63.2505	88616	BO	America/La_Paz
3910291	Mizque	-17.94101	-65.34016	30481	BO	America/La_Paz
3911409	Llallagua	-18.42426	-66.58388	28069	BO	America/La_Paz
3911925	La Paz	-16.5	-68.15	812799	BO	America/La_Paz
3914839	Huanuni	-18.289	-66.83583	15492	BO	America/La_Paz
3915350	Guayaramerín	-10.8258	-65.3581	36008	BO	America/La_Paz
3918937	Cotoca	-17.81667	-63.05	18347	BO	America/La_Paz
3919968	Cochabamba	-17.3895	-66.1568	900414	BO	America/La_Paz
3919998	Cobija	-11.02671	-68.76918	26585	BO	America/La_Paz
3922414	Camiri	-20.03849	-63.51833	27961	BO	America/La_Paz
3923154	Bermejo	-22.73206	-64.33724	35411	BO	America/La_Paz
9129422	Ascención de Guarayos	-15.89299	-63.18855	18816	BO	America/La_Paz
11467676	San Borja	-14.85195	-66.74954	24610	BO	America/La_Paz
3513563	Kralendijk	12.15	-68.26667	3081	BQ	America/Kralendijk
3384986	Vitória do Mearim	-3.46222	-44.87056	15775	BR	America/Fortaleza
3384987	Vitória de Santo Antão	-8.11806	-35.29139	107383	BR	America/Recife
3385022	Viseu	-1.19667	-46.14	18958	BR	America/Belem
3385077	Conde	-7.25972	-34.9075	15859	BR	America/Fortaleza
3385088	Vigia	-0.85833	-48.14167	29229	BR	America/Belem
3385106	Viçosa do Ceará	-3.56222	-41.09222	16636	BR	America/Fortaleza
3385109	Viçosa	-9.37139	-36.24083	19573	BR	America/Maceio
3385122	Viana	-3.22028	-45.00361	26689	BR	America/Fortaleza
3385467	Várzea Alegre	-5.35	-40.38333	21841	BR	America/Fortaleza
3385504	Varjota	-4.19444	-40.47667	16462	BR	America/Fortaleza
3385538	Vargem Grande	-3.54306	-43.91583	21419	BR	America/Fortaleza
3385592	Valença do Piauí	-6.4075	-41.74556	15881	BR	America/Fortaleza
3385742	União dos Palmares	-9.16278	-36.03194	41178	BR	America/Maceio
3385745	União	-4.58583	-42.86417	15677	BR	America/Fortaleza
3385922	Tuntum	-5.25806	-44.64889	16402	BR	America/Fortaleza
3385935	Tucuruí	-3.76585	-49.67923	76337	BR	America/Belem
3385980	Tucumã	-0.18333	-50.05	15030	BR	America/Belem
3386042	Trindade	-7.76194	-40.26778	19313	BR	America/Recife
3386177	Trairi	-3.27778	-39.26889	23126	BR	America/Fortaleza
3386264	Toritama	-8.00667	-36.05667	23940	BR	America/Recife
3386279	Tomé Açu	-2.41889	-48.15222	34053	BR	America/Belem
3386361	Timon	-5.09417	-42.83667	124427	BR	America/Fortaleza
3386372	Timbiras	-4.25528	-43.94056	17875	BR	America/Fortaleza
3386396	Timbaúba	-7.50528	-35.31833	45121	BR	America/Recife
3386449	Tianguá	-3.73222	-40.99167	45696	BR	America/Fortaleza
3386496	Teresina	-5.08917	-42.80194	744512	BR	America/Fortaleza
3386567	São João dos Inhamuns	-6.0	-40.28333	29188	BR	America/Fortaleza
3386931	Tamandaré	-8.75632	-35.09995	17954	BR	America/Recife
3387082	Tabira	-7.59083	-37.53944	16926	BR	America/Recife
3387115	Surubim	-7.83306	-35.75472	34580	BR	America/Recife
3387202	Sousa	-6.75917	-38.22806	47927	BR	America/Fortaleza
3387204	Soure	-0.71667	-48.52333	18212	BR	America/Belem
3387266	Solânea	-6.755	-35.54	17030	BR	America/Fortaleza
3387296	Sobral	-3.68611	-40.34972	157996	BR	America/Fortaleza
3387604	Sirinhaém	-8.59083	-35.11611	40852	BR	America/Recife
3387663	Sertânia	-8.07361	-37.26444	18190	BR	America/Recife
3387786	Serra Talhada	-7.99194	-38.29833	51203	BR	America/Recife
3387926	Senador Pompeu	-5.58806	-39.37167	16515	BR	America/Fortaleza
3387987	Satuba	-9.56333	-35.82444	15887	BR	America/Maceio
3388145	São Raimundo Nonato	-9.01528	-42.69944	19569	BR	America/Fortaleza
3388269	São Miguel dos Campos	-9.78111	-36.09361	40890	BR	America/Maceio
3388270	São Miguel do Guamá	-1.62667	-47.48333	28265	BR	America/Belem
3388318	São Mateus do Maranhão	-4.04167	-44.475	28233	BR	America/Fortaleza
3388341	São Luís do Quitunde	-9.31833	-35.56111	20563	BR	America/Maceio
3388368	São Luís	-2.52972	-44.30278	917237	BR	America/Fortaleza
3388376	São Lourenço da Mata	-8.00222	-35.01833	88416	BR	America/Recife
3388435	São José do Egito	-7.47889	-37.27444	18218	BR	America/Recife
3388441	São José de Ribamar	-2.56194	-44.05417	27777	BR	America/Fortaleza
3388443	São José de Mipibu	-6.07472	-35.23778	15298	BR	America/Fortaleza
3388615	São João dos Patos	-6.495	-43.70222	19538	BR	America/Fortaleza
3388714	São Gonçalo do Amarante	-3.60722	-38.96833	23583	BR	America/Fortaleza
3388847	São Félix do Xingu	-6.64472	-51.995	16477	BR	America/Belem
3388868	São Domingos do Maranhão	-5.57583	-44.38528	18275	BR	America/Fortaleza
3388991	São Bento	-6.28333	-37.75	24749	BR	America/Fortaleza
3389006	São Bento	-2.69583	-44.82139	17245	BR	America/Fortaleza
3389321	Santa Rita	-7.11389	-34.97806	119893	BR	America/Fortaleza
3389353	Santarém	-2.44306	-54.70833	189047	BR	America/Santarem
3389358	Santa Quitéria do Maranhão	-3.51556	-42.54667	17174	BR	America/Fortaleza
3389361	Santa Quitéria	-4.33194	-40.15667	24391	BR	America/Fortaleza
3389384	Santana do Ipanema	-9.37833	-37.24528	26146	BR	America/Maceio
3389557	Santa Luzia	-7.64265	-47.21738	22909	BR	America/Fortaleza
3389609	Santa Inês	-3.66667	-45.38	67424	BR	America/Fortaleza
3389622	Santa Helena	-2.23111	-45.3	16045	BR	America/Fortaleza
3389652	Santa Cruz do Capibaribe	-7.9575	-36.20472	76450	BR	America/Recife
3389673	Santa Cruz	-6.22944	-36.02278	27775	BR	America/Fortaleza
3389822	Salinópolis	-0.61361	-47.35611	40998	BR	America/Belem
3389860	Salgueiro	-8.07417	-39.11917	42152	BR	America/Recife
3390160	Russas	-4.94028	-37.97583	39465	BR	America/Fortaleza
3390288	Rio Largo	-9.47833	-35.85333	63387	BR	America/Maceio
3390295	Rio Formoso	-8.66877	-35.16277	15518	BR	America/Recife
3390326	Ribeirão	-8.51444	-35.37778	29818	BR	America/Recife
3390760	Recife	-8.05389	-34.88111	1478098	BR	America/Recife
3390901	Quixeramobim	-5.19917	-39.29278	34321	BR	America/Fortaleza
3390907	Quixadá	-4.97139	-39.01528	49328	BR	America/Fortaleza
3391220	Presidente Dutra	-5.29	-44.49	30330	BR	America/Fortaleza
3391360	Santana	-0.05833	-51.18167	83927	BR	America/Belem
3391397	Porto Calvo	-9.045	-35.39833	17346	BR	America/Maceio
3391412	Portel	-1.93556	-50.82111	21315	BR	America/Belem
3391556	Pombos	-8.14139	-35.39583	15894	BR	America/Recife
3391571	Pombal	-6.77028	-37.80167	21751	BR	America/Fortaleza
3391908	Piripiri	-4.27333	-41.77694	44864	BR	America/Fortaleza
3391991	Piracuruca	-3.92806	-41.70917	18852	BR	America/Fortaleza
3392054	Pinheiro	-2.52139	-45.0825	38893	BR	America/Fortaleza
3392088	Pindaré Mirim	-3.60833	-45.34333	22933	BR	America/Fortaleza
3392126	Pilar	-9.59722	-35.95667	30617	BR	America/Maceio
3392167	Picos	-7.07694	-41.46694	57495	BR	America/Fortaleza
3392242	Petrolina	-9.39861	-40.50083	194650	BR	America/Recife
3392243	Jatobá	-9.18306	-38.26889	20575	BR	America/Recife
3392251	Pesqueira	-8.35778	-36.69639	41896	BR	America/Recife
3392345	Pentecoste	-3.79278	-39.27028	19680	BR	America/Fortaleza
3392368	Penalva	-3.29417	-45.17361	17186	BR	America/Fortaleza
3392431	Pedro II	-4.42472	-41.45861	22038	BR	America/Fortaleza
3392629	Pedra Branca	-5.45417	-39.71722	20072	BR	America/Fortaleza
3392734	Paulo Afonso	-9.40611	-38.21472	85350	BR	America/Bahia
3392740	Paulista	-7.94083	-34.87306	289971	BR	America/Recife
3392887	Patos	-7.02444	-37.28	92575	BR	America/Fortaleza
3392998	Parnamirim	-5.91556	-35.26278	150343	BR	America/Fortaleza
3393001	Parnaíba	-2.90472	-41.77667	138008	BR	America/Fortaleza
3393008	Parintins	-2.62833	-56.73583	64428	BR	America/Manaus
3393017	Parelhas	-6.68778	-36.6575	16377	BR	America/Fortaleza
3393091	Paraipaba	-3.43944	-39.14833	18423	BR	America/Fortaleza
3393106	Paragominas	-2.96667	-47.48333	69613	BR	America/Belem
3393115	Paracuru	-3.41	-39.03056	21196	BR	America/Fortaleza
3393264	Palmares	-8.68333	-35.59167	41679	BR	America/Recife
3393400	Pacatuba	-3.98417	-38.62028	55291	BR	America/Fortaleza
3393409	Pacajus	-4.1725	-38.46056	41558	BR	America/Fortaleza
3393452	Ouricuri	-7.8825	-40.08167	29317	BR	America/Recife
3393465	Orós	-6.24444	-38.91361	16328	BR	America/Fortaleza
3393471	Oriximiná	-1.76556	-55.86611	35581	BR	America/Santarem
3393536	Olinda	-8.00889	-34.85528	366754	BR	America/Recife
3393764	Oeiras	-7.02528	-42.13111	21071	BR	America/Fortaleza
3393768	Óbidos	-1.9175	-55.51806	24970	BR	America/Santarem
3393832	Nova Russas	-4.70667	-40.56306	21986	BR	America/Fortaleza
3393876	Nova Cruz	-6.47806	-35.43389	23166	BR	America/Fortaleza
3393972	Nazaré da Mata	-7.74167	-35.22778	26485	BR	America/Recife
3394023	Natal	-5.795	-35.20944	763043	BR	America/Fortaleza
3394116	Murici	-9.30667	-35.94333	20419	BR	America/Maceio
3394453	Moreno	-8.11861	-35.09222	45237	BR	America/Recife
3394500	Morada Nova	-5.10667	-38.3725	37389	BR	America/Fortaleza
3394549	Monteiro	-7.88944	-37.12	17726	BR	America/Fortaleza
3394605	Monte Alegre	-2.00082	-54.08102	22840	BR	America/Santarem
3394649	Mombaça	-5.74306	-39.6275	17065	BR	America/Fortaleza
3394661	Moju	-1.88389	-48.76889	21510	BR	America/Belem
3394682	Mossoró	-5.1875	-37.34417	202005	BR	America/Fortaleza
3394745	Mocajuba	-2.58417	-49.50722	16567	BR	America/Belem
3395062	Maués	-3.38361	-57.71861	22475	BR	America/Manaus
3395077	Matriz de Camaragibe	-9.15167	-35.53333	18705	BR	America/Maceio
3395380	Mari	-7.06	-35.31944	17535	BR	America/Fortaleza
3395395	Marechal Deodoro	-9.71028	-35.895	50571	BR	America/Maceio
3395458	Maragogi	-9.01222	-35.2225	16066	BR	America/Maceio
3395473	Maracanaú	-3.87667	-38.62556	193529	BR	America/Fortaleza
3395503	Marabá	-5.38146	-49.13232	145860	BR	America/Belem
3395717	Mamanguape	-6.83861	-35.12611	27606	BR	America/Fortaleza
3395981	Maceió	-9.66583	-35.73528	954991	BR	America/Maceio
3395998	Macau	-5.115	-36.63444	18070	BR	America/Fortaleza
3396016	Macapá	0.03889	-51.06639	338936	BR	America/Belem
3396048	Macaíba	-5.85833	-35.35389	40015	BR	America/Fortaleza
3396266	Limoeiro do Norte	-5.14556	-38.09806	29449	BR	America/Fortaleza
3396277	Limoeiro	-7.87472	-35.45028	42328	BR	America/Recife
3396364	Lavras da Mangabeira	-6.75333	-38.96444	17221	BR	America/Fortaleza
3396496	Lajedo	-8.66361	-36.32	25261	BR	America/Recife
3396601	Lago da Pedra	-4.28674	-45.23824	25996	BR	America/Fortaleza
3396769	Lagoa do Itaenga	-7.93611	-35.29028	17719	BR	America/Recife
3397147	Juazeiro do Norte	-7.21306	-39.31528	225230	BR	America/Fortaleza
3397230	José de Freitas	-4.75639	-42.57556	21432	BR	America/Fortaleza
3397277	João Pessoa	-7.115	-34.86306	650883	BR	America/Fortaleza
3397315	João Câmara	-5.5375	-35.81972	19885	BR	America/Fortaleza
3397665	Jaguaruana	-4.83389	-37.78111	21790	BR	America/Fortaleza
3397675	Jaguaribe	-5.89056	-38.62194	23065	BR	America/Fortaleza
3397838	Jaboatão	-8.18028	-35.00139	702621	BR	America/Recife
3397851	Itupiranga	-5.13472	-49.32667	21301	BR	America/Belem
3397893	Itacoatiara	-3.14306	-58.44417	64937	BR	America/Manaus
3397898	Itaporanga	-7.30444	-38.15028	15890	BR	America/Fortaleza
3397904	Itapissuma	-7.77639	-34.89222	16673	BR	America/Recife
3397909	Itapipoca	-3.49444	-39.57861	55784	BR	America/Fortaleza
3397936	Itapecuru Mirim	-3.3925	-44.35861	34943	BR	America/Fortaleza
3397941	Itapagé	-3.68667	-39.58611	32043	BR	America/Fortaleza
3397967	Itaituba	-4.27611	-55.98361	64756	BR	America/Santarem
3397969	Itaitinga	-3.96944	-38.52806	30938	BR	America/Fortaleza
3398003	Itabaiana	-7.32861	-35.3325	19100	BR	America/Fortaleza
3398076	Ipueiras	-7.03333	-40.45	17111	BR	America/Fortaleza
3398105	Ipubi	-7.65194	-40.14889	16424	BR	America/Recife
3398112	Ipu	-4.32222	-40.71083	26678	BR	America/Fortaleza
3398115	Ipojuca	-8.39889	-35.06389	53364	BR	America/Recife
3398269	Imperatriz	-5.52639	-47.49167	218106	BR	America/Fortaleza
3398331	Iguatu	-6.35944	-39.29861	70380	BR	America/Fortaleza
3398343	Igarapé Miri	-1.975	-48.95972	26837	BR	America/Belem
3398350	Igarapé Açu	-1.12889	-47.62	24136	BR	America/Belem
3398352	Igarassu	-7.83417	-34.90639	86457	BR	America/Recife
3398379	Icó	-6.40111	-38.86222	28323	BR	America/Fortaleza
3398450	Horizonte	-4.1	-38.48333	51171	BR	America/Fortaleza
3398569	Guaraciaba do Norte	-4.16694	-40.7475	18186	BR	America/Fortaleza
3398570	Guarabira	-6.85472	-35.49	43749	BR	America/Fortaleza
3398614	Guaiúba	-4.03972	-38.63722	21820	BR	America/Fortaleza
3398691	Gravatá	-8.20111	-35.56472	61249	BR	America/Recife
3398706	Granja	-3.12028	-40.82611	25879	BR	America/Fortaleza
3398856	Grajaú	-5.81944	-46.13861	30217	BR	America/Fortaleza
3398904	Goiana	-7.56056	-35.0025	43980	BR	America/Recife
3398920	Glória do Goitá	-8.00167	-35.29278	17374	BR	America/Recife
3399058	Garanhuns	-8.88202	-36.50216	110085	BR	America/Recife
3399132	Gameleira	-8.58444	-35.38667	19423	BR	America/Recife
3399415	Fortaleza	-3.71722	-38.54306	2400000	BR	America/Fortaleza
3399506	Floriano	-6.76694	-43.0225	48587	BR	America/Fortaleza
3399518	Floresta	-8.60111	-38.56861	18100	BR	America/Recife
3400558	Eusébio	-3.89	-38.45056	37289	BR	America/Fortaleza
3400567	Extremoz	-5.70556	-35.30722	17991	BR	America/Fortaleza
3400617	Estreito	-5.78333	-43.25	17647	BR	America/Fortaleza
3400740	Esperantina	-3.90167	-42.23361	21044	BR	America/Fortaleza
3400752	Esperança	-7.03306	-35.85722	18817	BR	America/Fortaleza
3400804	Escada	-8.35917	-35.22361	48083	BR	America/Recife
3400969	Dom Pedro	-5.03749	-44.43857	15570	BR	America/Fortaleza
3401106	Demerval Lobão	-5.35833	-42.67639	15265	BR	America/Fortaleza
3401109	Delmiro Gouveia	-9.38861	-37.99917	35259	BR	America/Maceio
3401138	Custódia	-8.0875	-37.64306	18107	BR	America/Recife
3401148	Cururupu	-1.82833	-44.86833	22007	BR	America/Fortaleza
3401283	Currais Novos	-6.26083	-36.51778	35560	BR	America/Fortaleza
3401340	Cupira	-8.61667	-35.95	19096	BR	America/Recife
3401545	Crato	-7.23417	-39.40944	88786	BR	America/Fortaleza
3401548	Crateús	-5.17833	-40.6775	52933	BR	America/Fortaleza
3401703	Coroatá	-4.13	-44.12417	34129	BR	America/Fortaleza
3401830	Condado	-7.58583	-35.10583	19585	BR	America/Recife
3401845	Conceição do Araguaia	-8.26441	-49.26982	27115	BR	America/Belem
3401963	Colinas	-6.02583	-44.24917	25158	BR	America/Fortaleza
3401992	Coelho Neto	-4.25667	-43.01278	36184	BR	America/Fortaleza
3402000	Codó	-4.45528	-43.88556	83288	BR	America/Fortaleza
3402229	Chapadinha	-3.74167	-43.36028	40804	BR	America/Fortaleza
3402271	Chã Grande	-8.23833	-35.46167	17112	BR	America/Recife
3402360	Ceará Mirim	-5.63444	-35.42556	32667	BR	America/Fortaleza
3402383	Caxias	-4.85889	-43.35611	148072	BR	America/Fortaleza
3402429	Caucaia	-3.73611	-38.65306	275019	BR	America/Fortaleza
3402465	Catolé do Rocha	-6.34389	-37.74667	19812	BR	America/Fortaleza
3402528	Catende	-8.66667	-35.71667	23322	BR	America/Recife
3402591	Castanhal	-1.29389	-47.92639	137406	BR	America/Belem
3402613	Cascavel	-4.13306	-38.24194	52357	BR	America/Fortaleza
3402655	Caruaru	-8.28333	-35.97611	235371	BR	America/Recife
3402721	Carpina	-7.85083	-35.25472	70689	BR	America/Recife
3402724	Carolina	-7.33561	-47.46218	16228	BR	America/Fortaleza
3403127	Capitão Poço	-1.74639	-47.05944	32704	BR	America/Belem
3403208	Capanema	-1.19583	-47.18083	47766	BR	America/Belem
3403353	Canindé	-4.35889	-39.31167	42720	BR	America/Fortaleza
3403362	Canguaretama	-6.38	-35.12889	18873	BR	America/Fortaleza
3403534	Campos Sales	-7.07444	-40.37611	17648	BR	America/Fortaleza
3403566	Campo Maior	-4.82778	-42.16861	31739	BR	America/Fortaleza
3403611	Campo Alegre	-9.78194	-36.35083	16785	BR	America/Maceio
3403642	Campina Grande	-7.23056	-35.88111	348936	BR	America/Fortaleza
3403687	Camocim	-2.90222	-40.84111	44481	BR	America/Fortaleza
3403697	Cametá	-2.24444	-49.49583	45200	BR	America/Belem
3403941	Cajueiro	-9.71667	-36.45	15062	BR	America/Maceio
3404020	Cajazeiras	-6.89028	-38.55528	43913	BR	America/Fortaleza
3404117	Caicó	-6.45833	-37.09778	54934	BR	America/Fortaleza
3404513	Cabrobó	-8.51417	-39.31	16096	BR	America/Recife
3404545	Cabo	-8.28333	-35.03333	143105	BR	America/Recife
3404558	Cabedelo	-6.98111	-34.83389	54839	BR	America/Fortaleza
3404722	Buriti Bravo	-5.83722	-43.83361	17692	BR	America/Fortaleza
3404766	Buíque	-8.62306	-37.15583	20324	BR	America/Recife
3404817	Breves	-1.68222	-50.48028	46473	BR	America/Belem
3404833	Brejo Santo	-7.49333	-38.98722	27384	BR	America/Fortaleza
3404862	Brejo da Madre de Deus	-8.14583	-36.37111	27369	BR	America/Recife
3405006	Bragança	-1.05361	-46.76556	57163	BR	America/Belem
3405380	Bom Conselho	-9.16972	-36.67972	27800	BR	America/Recife
3405616	Boa Viagem	-5.1275	-39.73222	24671	BR	America/Fortaleza
3405738	Bezerros	-8.23333	-35.79694	51436	BR	America/Recife
3405792	Benevides	-1.36139	-48.24472	49794	BR	America/Belem
3405812	Belo Jardim	-8.33556	-36.42417	49922	BR	America/Recife
3405863	Belém	-6.69167	-35.53333	15550	BR	America/Fortaleza
3405870	Belém	-1.45583	-48.50444	1407737	BR	America/Belem
3405924	Beberibe	-4.17972	-38.13056	37025	BR	America/Fortaleza
3405940	Bayeux	-7.125	-34.93222	91056	BR	America/Fortaleza
3405954	Baturité	-4.32861	-38.88472	22417	BR	America/Fortaleza
3406160	Barreiros	-8.81833	-35.18639	35565	BR	America/Recife
3406196	Barreirinhas	-2.75556	-42.82591	17437	BR	America/Fortaleza
3406263	Barras	-4.24444	-42.29444	21597	BR	America/Fortaleza
3406317	Barra do Corda	-5.50556	-45.24333	86662	BR	America/Fortaleza
3406429	Barcarena	-1.50583	-48.62583	29871	BR	America/Belem
3406442	Barbalha	-7.31111	-39.30417	33943	BR	America/Fortaleza
3406545	Balsas	-7.5325	-46.03556	68056	BR	America/Fortaleza
3406910	Bacabal	-4.29167	-44.79167	72372	BR	America/Fortaleza
3406961	Augusto Corrêa	-1.02167	-46.635	16279	BR	America/Belem
3406996	Atalaia	-9.50194	-36.02278	18908	BR	America/Maceio
3407194	Areia Branca	-4.95611	-37.13694	18372	BR	America/Fortaleza
3407216	Arcoverde	-8.41889	-37.05389	57163	BR	America/Recife
3407243	Araripina	-7.57611	-40.49833	38569	BR	America/Recife
3407258	Arari	-3.45361	-44.78	16777	BR	America/Fortaleza
3407327	Arapiraca	-9.7525	-36.66111	166562	BR	America/Maceio
3407357	Araguaína	-7.19111	-48.20722	105019	BR	America/Araguaina
3407378	Aracati	-4.56167	-37.76972	44293	BR	America/Fortaleza
3407407	Aquiraz	-3.90139	-38.39111	65116	BR	America/Fortaleza
3407440	Apodi	-5.66417	-37.79889	16757	BR	America/Fortaleza
3407669	Ananindeua	-1.36556	-48.37222	433956	BR	America/Belem
3407758	Amaraji	-8.38306	-35.4525	16660	BR	America/Recife
3407797	Altos	-5.03806	-42.46	28768	BR	America/Fortaleza
3407882	Altamira	-3.20333	-52.20639	70888	BR	America/Santarem
3407903	Almeirim	-1.52333	-52.58167	20464	BR	America/Santarem
3407980	Alenquer	-1.94167	-54.73833	26290	BR	America/Santarem
3408100	Alagoa Grande	-7.15833	-35.63	16406	BR	America/Fortaleza
3408166	Águas Belas	-9.11139	-37.12306	22563	BR	America/Recife
3408175	Água Preta	-8.7075	-35.53056	16444	BR	America/Recife
3408274	Afogados da Ingazeira	-7.75083	-37.63917	25060	BR	America/Recife
3408337	Açu	-5.57667	-36.90861	36125	BR	America/Fortaleza
3408343	Acopiara	-6.09528	-39.4525	24561	BR	America/Fortaleza
3408368	Acaraú	-2.88556	-40.12	28389	BR	America/Fortaleza
3408404	Abreu e Lima	-7.91167	-34.90278	81959	BR	America/Recife
3408424	Abaetetuba	-1.71806	-48.8825	78050	BR	America/Belem
3444823	Xique Xique	-10.82294	-42.72815	35433	BR	America/Bahia
3444848	Xanxerê	-26.87694	-52.40417	32957	BR	America/Sao_Paulo
3444864	Votuporanga	-20.42278	-49.97278	69863	BR	America/Sao_Paulo
3444866	Votorantim	-23.54667	-47.43778	99390	BR	America/Sao_Paulo
3444876	Volta Redonda	-22.52306	-44.10417	249580	BR	America/Sao_Paulo
3444914	Vitória da Conquista	-14.86611	-40.83944	253137	BR	America/Bahia
3444924	Vitória	-20.31944	-40.33778	312656	BR	America/Sao_Paulo
3444969	Visconde do Rio Branco	-21.01028	-42.84056	29009	BR	America/Sao_Paulo
3444997	Viradouro	-20.87306	-48.29694	17172	BR	America/Sao_Paulo
3445014	Vinhedo	-23.02972	-46.97528	56492	BR	America/Sao_Paulo
3445026	Vila Velha	-20.32972	-40.2925	394930	BR	America/Sao_Paulo
3445126	Videira	-27.00833	-51.15167	42440	BR	America/Sao_Paulo
3445133	Viçosa	-20.75389	-42.88194	68680	BR	America/Sao_Paulo
3445153	Viana	-20.39028	-40.49611	55122	BR	America/Sao_Paulo
3445156	Viamão	-30.08111	-51.02333	285269	BR	America/Sao_Paulo
3445162	Vespasiano	-19.69194	-43.92333	94749	BR	America/Sao_Paulo
3445299	Veranópolis	-28.93611	-51.54944	19861	BR	America/Sao_Paulo
3445307	Vera Cruz	-12.63333	-41.03333	30556	BR	America/Bahia
3445348	Wenceslau Braz	-23.87389	-49.80278	15726	BR	America/Sao_Paulo
3445350	Venâncio Aires	-29.60639	-52.19194	40627	BR	America/Sao_Paulo
3445418	Vazante	-17.98694	-46.90778	15459	BR	America/Sao_Paulo
3445433	Vassouras	-22.40389	-43.6625	21174	BR	America/Sao_Paulo
3445446	Várzea Paulista	-23.21139	-46.82833	110936	BR	America/Sao_Paulo
3445451	Várzea Grande	-15.64667	-56.1325	249752	BR	America/Cuiaba
3445459	Várzea da Palma	-17.5976	-44.73367	28706	BR	America/Sao_Paulo
3445487	Varginha	-21.55139	-45.43028	116571	BR	America/Sao_Paulo
3445500	Vargem Grande do Sul	-21.83222	-46.89361	36213	BR	America/Sao_Paulo
3445575	Valparaíso	-21.22778	-50.86833	15938	BR	America/Sao_Paulo
3445578	Valinhos	-22.97056	-46.99583	88630	BR	America/Sao_Paulo
3445596	Valença	-22.24556	-43.70028	61144	BR	America/Sao_Paulo
3445597	Valença	-13.37028	-39.07306	63231	BR	America/Bahia
3445630	Vacaria	-28.51222	-50.93389	56765	BR	America/Sao_Paulo
3445679	Uruguaiana	-29.75472	-57.08833	123480	BR	America/Sao_Paulo
3445690	Uruçuca	-14.59306	-39.28444	24409	BR	America/Bahia
3445713	Uruaçu	-14.52472	-49.14083	30088	BR	America/Sao_Paulo
3445746	União da Vitória	-26.23	-51.08639	48741	BR	America/Sao_Paulo
3445764	Unaí	-16.3575	-46.90611	60202	BR	America/Sao_Paulo
3445781	Una	-15.29333	-39.07528	22613	BR	America/Bahia
3445782	Umuarama	-23.76639	-53.325	107319	BR	America/Sao_Paulo
3445831	Uberlândia	-18.91861	-48.27722	563536	BR	America/Sao_Paulo
3445839	Uberaba	-19.74833	-47.93194	260843	BR	America/Sao_Paulo
3445847	Ubatuba	-23.43389	-45.07111	79007	BR	America/Sao_Paulo
3445849	Ubatã	-14.20906	-39.52641	15604	BR	America/Bahia
3445853	Ubaitaba	-14.3125	-39.32333	28375	BR	America/Bahia
3445859	Ubá	-21.12	-42.94278	97828	BR	America/Sao_Paulo
3445939	Tupanciretã	-29.08056	-53.83583	17488	BR	America/Sao_Paulo
3445941	Tupaciguara	-18.59222	-48.705	24398	BR	America/Sao_Paulo
3445942	Tupã	-21.93472	-50.51361	62035	BR	America/Sao_Paulo
3445983	Tucano	-10.95817	-38.79084	31203	BR	America/Bahia
3445993	Tubarão	-28.46667	-49.00694	67245	BR	America/Sao_Paulo
3446038	Trindade	-16.64944	-49.48889	97521	BR	America/Sao_Paulo
3446065	Três Rios	-22.11667	-43.20917	71944	BR	America/Sao_Paulo
3446077	Três Pontas	-21.36667	-45.5125	43749	BR	America/Sao_Paulo
3446087	Três Passos	-27.45556	-53.93194	17286	BR	America/Sao_Paulo
3446098	Três Lagoas	-20.78765	-51.70338	78712	BR	America/Campo_Grande
3446130	Três de Maio	-27.77333	-54.24	18278	BR	America/Sao_Paulo
3446137	Três Coroas	-29.51694	-50.77778	21051	BR	America/Sao_Paulo
3446138	Três Corações	-21.69694	-45.25333	63457	BR	America/Sao_Paulo
3446194	Tremembé	-22.95833	-45.54944	31719	BR	America/Sao_Paulo
3446232	Tramandaí	-29.98472	-50.13361	34734	BR	America/Sao_Paulo
3446295	Torres	-29.33528	-49.72694	32791	BR	America/Sao_Paulo
3446370	Toledo	-24.71361	-53.74306	119313	BR	America/Sao_Paulo
3446400	Tobias Barreto	-11.18389	-37.99833	29740	BR	America/Maceio
3446445	Timóteo	-19.58106	-42.64953	91722	BR	America/Sao_Paulo
3446465	Timbó	-26.82333	-49.27167	33765	BR	America/Sao_Paulo
3446500	Tijucas	-27.24139	-48.63361	22481	BR	America/Sao_Paulo
3446539	Tietê	-23.10194	-47.71472	32061	BR	America/Sao_Paulo
3446556	Teutônia	-29.44806	-51.80639	21834	BR	America/Sao_Paulo
3446606	Teresópolis	-22.4167	-42.97822	123979	BR	America/Sao_Paulo
3446621	Teófilo Otoni	-17.8575	-41.50528	101170	BR	America/Sao_Paulo
3446625	Teodoro Sampaio	-22.5325	-52.1675	15193	BR	America/Sao_Paulo
3446652	Telêmaco Borba	-24.32389	-50.61556	58880	BR	America/Sao_Paulo
3446682	Taubaté	-23.02639	-45.55528	251641	BR	America/Sao_Paulo
3446692	Tatuí	-23.35556	-47.85694	93580	BR	America/Sao_Paulo
3446752	Taquarituba	-23.53306	-49.24444	21492	BR	America/Sao_Paulo
3446753	Taquaritinga	-21.40611	-48.50472	50098	BR	America/Sao_Paulo
3446783	Taquari	-29.79972	-51.86444	27107	BR	America/Sao_Paulo
3446847	Taquara	-29.65056	-50.78056	48051	BR	America/Sao_Paulo
3446866	Tapiramutá	-11.84722	-40.79139	16544	BR	America/Bahia
3446880	Tapes	-30.67333	-51.39583	18570	BR	America/Sao_Paulo
3446974	Tanguá	-22.73028	-42.71417	23740	BR	America/Sao_Paulo
3446979	Tanabi	-20.62639	-49.64917	18227	BR	America/Sao_Paulo
3447005	Tambaú	-21.705	-47.27444	19956	BR	America/Sao_Paulo
3447059	Taiobeiras	-15.80778	-42.23306	24351	BR	America/Sao_Paulo
3447186	Taboão da Serra	-23.62611	-46.79167	214523	BR	America/Sao_Paulo
3447212	Suzano	-23.5425	-46.31083	283314	BR	America/Sao_Paulo
3447259	Sumaré	-22.82194	-47.26694	227977	BR	America/Sao_Paulo
3447399	Sorocaba	-23.50167	-47.45806	558862	BR	America/Sao_Paulo
3447423	Soledade	-28.81833	-52.51028	24791	BR	America/Sao_Paulo
3447437	Socorro	-22.59139	-46.52889	24272	BR	America/Sao_Paulo
3447473	Sobradinho	-12.83333	-39.1	19304	BR	America/Bahia
3447562	Simão Dias	-10.73833	-37.81111	18385	BR	America/Maceio
3447591	Silva Jardim	-22.65083	-42.39167	16888	BR	America/Sao_Paulo
3447597	Sidrolândia	-20.93194	-54.96139	16878	BR	America/Campo_Grande
3447624	Sete Lagoas	-19.46583	-44.24667	201334	BR	America/Sao_Paulo
3447651	Sertãozinho	-21.13778	-47.99028	99211	BR	America/Sao_Paulo
3447690	Serrinha	-11.66417	-39.0075	49078	BR	America/Bahia
3447718	Serra Negra	-22.61222	-46.70056	22632	BR	America/Sao_Paulo
3447720	Serrana	-21.21139	-47.59556	39826	BR	America/Sao_Paulo
3447779	Serra	-20.12861	-40.30778	394153	BR	America/Sao_Paulo
3447785	Seropédica	-22.74389	-43.7075	54846	BR	America/Sao_Paulo
3447839	Senhor do Bonfim	-10.46139	-40.18944	48471	BR	America/Bahia
3447854	Senador Canedo	-16.70806	-49.09306	61800	BR	America/Sao_Paulo
3447928	Seabra	-12.41713	-41.77049	16764	BR	America/Bahia
3447929	Schroeder	-26.4125	-49.07306	15505	BR	America/Sao_Paulo
3447961	Saubara	-12.7375	-38.76861	15662	BR	America/Bahia
3447969	Sarzedo	-20.03528	-44.14472	20798	BR	America/Sao_Paulo
3447997	Sarandi	-27.94389	-52.92306	15158	BR	America/Sao_Paulo
3447998	Sarandi	-23.44361	-51.87389	84697	BR	America/Sao_Paulo
3448011	Saquarema	-22.92	-42.51028	62056	BR	America/Sao_Paulo
3448031	Sapucaia	-29.83333	-51.15	130937	BR	America/Sao_Paulo
3448063	Sapiranga	-29.63806	-51.00694	76051	BR	America/Sao_Paulo
3448136	São Vicente	-23.96306	-46.39194	324457	BR	America/Sao_Paulo
3448207	São Sepé	-30.16056	-53.56528	19181	BR	America/Sao_Paulo
3448219	São Sebastião do Passé	-12.5125	-38.49528	31049	BR	America/Bahia
3448221	São Sebastião do Paraíso	-20.91694	-46.99139	68654	BR	America/Sao_Paulo
3448227	São Sebastião do Caí	-29.58667	-51.37556	19012	BR	America/Sao_Paulo
3448257	São Sebastião	-23.76	-45.40972	76367	BR	America/Sao_Paulo
3448300	São Roque	-23.52917	-47.13528	50540	BR	America/Sao_Paulo
3448351	São Pedro da Aldeia	-22.83917	-42.10278	55014	BR	America/Sao_Paulo
3448403	São Pedro	-22.54861	-47.91389	27068	BR	America/Sao_Paulo
3448439	São Paulo	-23.5475	-46.63611	10021295	BR	America/Sao_Paulo
3448453	São Miguel do Iguaçu	-25.34806	-54.23778	15434	BR	America/Sao_Paulo
3448455	São Miguel do Araguaia	-13.275	-50.16278	18809	BR	America/Sao_Paulo
3448502	São Mateus do Sul	-25.87417	-50.38278	24904	BR	America/Sao_Paulo
3448519	São Mateus	-18.72011	-39.85891	77117	BR	America/Sao_Paulo
3448533	São Marcos	-28.97111	-51.06806	18591	BR	America/Sao_Paulo
3448545	São Manuel	-22.73111	-48.57056	33587	BR	America/Sao_Paulo
3448552	São Luiz Gonzaga	-28.40833	-54.96083	31798	BR	America/Sao_Paulo
3448558	São Luís de Montes Belos	-16.525	-50.37222	23619	BR	America/Sao_Paulo
3448596	São Lourenço do Sul	-31.36528	-51.97833	25340	BR	America/Sao_Paulo
3448616	São Lourenço	-22.11639	-45.05444	41143	BR	America/Sao_Paulo
3448622	São Leopoldo	-29.76028	-51.14722	209229	BR	America/Sao_Paulo
3448632	São José dos Pinhais	-25.5302	-49.20836	124224	BR	America/Sao_Paulo
3448636	São José dos Campos	-23.17944	-45.88694	613764	BR	America/Sao_Paulo
3448639	São José do Rio Preto	-20.81972	-49.37944	374699	BR	America/Sao_Paulo
3448640	São José do Rio Pardo	-21.59556	-46.88861	46989	BR	America/Sao_Paulo
3448742	São José	-28.21171	-49.1632	200000	BR	America/Sao_Paulo
3448825	São Joaquim da Barra	-20.58139	-47.85472	42720	BR	America/Sao_Paulo
3448828	São Joaquim	-28.29389	-49.93167	16250	BR	America/Sao_Paulo
3448846	São João Nepomuceno	-21.54	-43.01056	23154	BR	America/Sao_Paulo
3448877	São João de Meriti	-22.80389	-43.37222	454849	BR	America/Sao_Paulo
3448879	São João del Rei	-21.13556	-44.26167	78592	BR	America/Sao_Paulo
